restaurant_id,district,r_name,r_latitude,r_longitude,rating,category,address
ChIJo0VfcblXqEcRyRSsxk1J354,Charlottenburg_North_1_1,Gastronomie des SC-Gothia,52.51182179999999,13.1937593,4.0,restaurant,"Bocksfeldstraße 21, Berlin"
ChIJKXEgmqZXqEcRRj2Q8Cbh3LQ,Charlottenburg_North_1_2,Nevios Werft Casino,52.5121586,13.2043704,4.4,restaurant,"Heerstraße an der Freybrücke, Heerstraße 200, Berlin"
ChIJL44NTgRXqEcRFPV6p3TmWxk,Charlottenburg_North_1_2,"Fischbrötchen, Räucherfisch, Backfisch",52.5119795,13.2039236,4.8,meal_takeaway,"Unnamed Road, Berlin"
ChIJ_ZHhVF5XqEcRhCKXtwHk1Zg,Charlottenburg_North_1_2,Waldschänke am Stößensee,52.51036849999999,13.2084776,4.4,meal_takeaway,"Heerstraße 185, Berlin"
ChIJGcka0R5XqEcRHbdN2VpRgz0,Charlottenburg_North_1_5,Wurstmax Biergarten,52.5127182,13.2438583,4.6,bar,"Trakehner Allee 6, Berlin-Bezirk Charlottenburg-Wilmersdorf"
ChIJGTP_rhdXqEcRMzdSkSSg8Zk,Charlottenburg_North_1_5,Winter Wunderland beim Holländer - Eisbahn,52.513352,13.2456295,3.9,bar,"Trakehner Allee 1A, Berlin"
ChIJ6_5ucxlXqEcRl1WOrQWISCI,Charlottenburg_North_1_5,Olympia-Eck,52.51192,13.24082,4.7,cafe,"Flatowallee 28, Berlin-Bezirk Charlottenburg-Wilmersdorf"
ChIJIQLxqSlXqEcR4VIvx2Ky9qo,Charlottenburg_North_1_7,Ristorante Piccolo Mondo,52.512361,13.2679368,4.5,restaurant,"Reichsstraße 9, Berlin"
ChIJXeZZFClXqEcRukhuQ4V18Uk,Charlottenburg_North_1_7,mlooi-sushi (Mateo-Looi Sushi Restaurant),52.5114946,13.2682324,4.7,restaurant,"Reichsstraße 102, Berlin-Bezirk Charlottenburg-Wilmersdorf"
ChIJLxtSkytXqEcRPY8Sscpcrqw,Charlottenburg_North_1_7,Bäcker Wiedemann – Bäckerei Charlottenburg-Wilmersdorf,52.5101979,13.2722725,4.0,bakery,"Theodor-Heuss-Platz 8, Berlin-Bezirk Charlottenburg-Wilmersdorf"
ChIJUbIv7CtXqEcROFoT1k4mxm0,Charlottenburg_North_1_7,Habel' s Lindenwirtin,52.510617,13.271694,4.4,restaurant,"Lindenallee 28, Berlin-Bezirk Charlottenburg-Wilmersdorf"
ChIJBXjuBSlXqEcRCGEkyIgNY2Y,Charlottenburg_North_1_7,Specialità Italiane VIA VAI,52.512276,13.2680161,4.5,store,"Reichsstraße 9, Berlin"
ChIJmXldSv5QqEcRWgeqefVwkmk,Charlottenburg_North_1_7,Joes Wirtshaus | Restaurant in Berlin,52.5099175,13.2708738,4.2,restaurant,"Theodor-Heuss-Platz 10, Berlin-Bezirk Charlottenburg-Wilmersdorf"
ChIJqfomdtlQqEcRDbh3R4hqQiY,Charlottenburg_North_1_7,Vino Greco,52.51157249999999,13.2697402,4.6,liquor_store,"Reichsstraße 5, Berlin"
ChIJ_ZmuaABXqEcR_CaHCv9kAEc,Charlottenburg_North_1_7,Charlottenburger Botschaft,52.51149770000001,13.2696993,4.7,restaurant,"Reichsstraße 5, Berlin"
ChIJ8Rt_UgBXqEcRKgvkz939bUo,Charlottenburg_North_1_7,Pho Reis Vietnamesisches Restaurant,52.5107781,13.2706202,4.7,restaurant,"Reichsstraße 3, Berlin"
ChIJO0aVKQBXqEcRMhlUxwgNfSs,Charlottenburg_North_1_7,Prime Pizza,52.51032490000001,13.2713164,4.6,meal_takeaway,"Reichsstraße 1, Berlin"
ChIJVZdT7itXqEcR_0-3lx364sE,Charlottenburg_North_1_7,Prime Kebab,52.51033349999999,13.2713807,4.2,restaurant,"Reichsstraße 1, Berlin"
ChIJwz4h4pNXqEcRp8CRlgdTXp4,Charlottenburg_North_1_7,EAT HAPPY,52.51020699999999,13.272583,4.0,meal_takeaway,"Theodor-Heuss-Platz 6, Berlin"
ChIJ47AxTtRQqEcRYfqhRCCf3WU,Charlottenburg_North_1_8,Cancún - Charlottenburg,52.5103382,13.2829738,4.7,restaurant,"Kaiserdamm 24, Berlin-Bezirk Charlottenburg-Wilmersdorf"
ChIJ2XbkVtRQqEcRwNFXLVNVyYk,Charlottenburg_North_1_8,Emek Imbiss Berlin,52.510481,13.2821207,4.4,meal_takeaway,"Königin-Elisabeth-Straße 2, Berlin-Bezirk Charlottenburg-Wilmersdorf"
ChIJhVmsUNRQqEcRnALPFXhR5cU,Charlottenburg_North_1_8,T. Viet Charlottenburg,52.51027759999999,13.2823915,4.5,restaurant,"Kaiserdamm 25A, Berlin-Bezirk Charlottenburg-Wilmersdorf"
ChIJH4qiVwBRqEcRH6l0XLqWRPI,Charlottenburg_North_1_8,BFW Kantine,52.51373079999999,13.2830957,1.0,restaurant,"Epiphanienweg 1, Berlin"
ChIJWSUGK2RRqEcRCDHz0nmQwdA,Charlottenburg_North_1_8,Lang Xua Charlottenburg,52.5111018,13.2819692,4.7,restaurant,"Königin-Elisabeth-Straße 8, Berlin"
ChIJ3fKEOgBRqEcRjhiTWp0ZxPQ,Charlottenburg_North_1_8,Kaiserdamm 23,52.5108439,13.2835489,5.0,restaurant,"Fredericiastraße 30, Berlin"
ChIJQUy4DmtRqEcRnq_hGer9Ak8,Charlottenburg_North_1_8,La Trattoria Da Mani,52.5107717,13.2833008,4.9,meal_takeaway,"Stülpnagelstraße 2, Berlin"
ChIJkVydqW1RqEcR3Nd7JoV2458,Charlottenburg_North_1_8,Kaiser Bistro,52.5105124,13.2840697,4.5,restaurant,"Kaiserdamm 22, Berlin"
ChIJp7xzxK1RqEcR98sY0Tb0QAc,Charlottenburg_North_1_8,Döner-Pizza&Thai Kitchen,52.510471,13.2820609,4.2,restaurant,"Königin-Elisabeth-Straße 2, Berlin-Bezirk Charlottenburg-Wilmersdorf"
ChIJU2v-VtRQqEcRIKuDwBTwWRk,Charlottenburg_North_1_8,Döner Imbiss,52.510471,13.2820609,4.1,restaurant,"Königin-Elisabeth-Straße 2, Berlin-Bezirk Charlottenburg-Wilmersdorf"
ChIJYfUKVwBRqEcR8g-6BLPGWtM,Charlottenburg_North_1_8,Café Non,52.51032720000001,13.2823569,4.9,restaurant,"Kaiserdamm 25, Berlin"
ChIJSYeNmyZRqEcRDhWCzIrWmZM,Charlottenburg_North_1_8,Berlin Dance & Events,52.5144214,13.2812908,,night_club,"Königin-Elisabeth-Straße, Berlin"
ChIJBY9a831RqEcRauKx3XHrG6A,Charlottenburg_North_1_8,Dunkin' Donuts,52.5102047,13.2812412,3.4,bakery,"Kaiserdamm U-Bahnhof 26, B2 26, Berlin-Bezirk Charlottenburg-Wilmersdorf"
ChIJzYCdNzxRqEcRhtLEFYB6XdY,Charlottenburg_North_1_9,Pizza Max Berlin Charlottenburg,52.5122683,13.2974304,4.6,meal_delivery,"Schloßstraße 34, Berlin"
ChIJXdpimCdRqEcRoUqfbSx8D3s,Charlottenburg_North_1_9,Guest house Stelzeneder,52.5133381,13.2978609,4.5,restaurant,"Zillestraße 113, Berlin"
ChIJpRrAHYRaqEcRwnSrTV-3QGM,Charlottenburg_North_1_9,XL Döner,52.5119317,13.2968606,4.6,meal_takeaway,"Schloßstraße 27B, Berlin-Bezirk Charlottenburg-Wilmersdorf"
ChIJn9ezmSdRqEcR_b744BCtPJE,Charlottenburg_North_1_9,Manhattan Burger Charlottenburg,52.51306109999999,13.2973363,4.3,restaurant,"Schloßstraße 39, Berlin"
ChIJwwnp2rdPqEcRRYqsqEDLbdI,Charlottenburg_North_1_9,"Lily Burger ""Beef & Vegan Grill-Club“",52.51208860000001,13.297567,4.7,restaurant,"Schloßstraße 32, Berlin"
ChIJ77Im_idRqEcRik7fsiev1Eo,Charlottenburg_North_1_9,Prema | Indisches Restaurant Berlin,52.5125379,13.2944898,4.5,restaurant,"Wundtstraße 9, Berlin-Bezirk Charlottenburg-Wilmersdorf"
ChIJuXK3m9hQqEcRvheST4T5laY,Charlottenburg_North_1_9,Asude Restaurant - Charlottenburg,52.5113715,13.2988818,4.6,restaurant,"Bismarckstraße 63-64, Berlin-Bezirk Charlottenburg-Wilmersdorf"
ChIJd5x1WthQqEcR7sjP5w2gzNY,Charlottenburg_North_1_9,Stella Alpina Restaurant,52.5099859,13.2964871,4.4,restaurant,"Suarezstraße 4, Berlin"
ChIJnVF5zSdRqEcRuzqHTAPCSA8,Charlottenburg_North_1_9,Gasthaus Kastanie,52.5141,13.29607,4.3,bar,"Schloßstraße 22, Berlin"
ChIJwwnwBdhQqEcRmNhiaheYjkg,Charlottenburg_North_1_9,Restaurant Al-Mundo,52.5119222,13.2949111,4.8,restaurant,"Horstweg 5, Berlin-Bezirk Charlottenburg-Wilmersdorf"
ChIJy4cXhidRqEcRs2HpShRuPi4,Charlottenburg_North_1_9,Ming Jia,52.51202730000001,13.2976618,4.6,restaurant,"Schloßstraße 32, Berlin-Bezirk Charlottenburg-Wilmersdorf"
ChIJPZiohdhQqEcRo1QOc8VzqMc,Charlottenburg_North_1_9,Bey Simit Haus,52.5113889,13.2983333,4.4,cafe,"Bismarckstraße 66, Berlin"
ChIJTdq3hidRqEcRgWXuvc9Nfk4,Charlottenburg_North_1_9,Van May,52.5121293,13.2975253,4.3,restaurant,"Schloßstraße 33, Berlin-Bezirk Charlottenburg-Wilmersdorf"
ChIJIQxGQVtRqEcRdhNtCUu3DqQ,Charlottenburg_North_1_9,Bistro Aleksandra-Polnisches Spezialitätenbistro,52.5121709,13.2976425,4.9,restaurant,"Bistro Aleksandra-Polnisches Spezialitätenbistro, Schloßstraße 33, Berlin"
ChIJv69_5MVRqEcRRZKxceyav1s,Charlottenburg_North_1_9,Lammitna Restaurant,52.51164559999999,13.2976994,4.8,meal_takeaway,"Schloßstraße 29, Berlin"
ChIJQSiBCABRqEcRteR1neqkKD4,Charlottenburg_North_1_9,Cafe Kaktus Horstweg,52.51190459999999,13.2944099,5.0,meal_takeaway,"Horstweg 7, Berlin"
ChIJAQBw_9dQqEcRnuOqghb-5xM,Charlottenburg_North_1_9,Pizza,52.51210099999999,13.2941161,,restaurant,"Horstweg 7, Berlin-Bezirk Charlottenburg-Wilmersdorf"
ChIJ0f_VIwBRqEcRMs7aMLlr7aU,Charlottenburg_North_1_9,Cantinho português,52.5135474,13.2946409,4.7,restaurant,"Knobelsdorffstraße 10, Berlin"
ChIJzUXQtblRqEcRhWUZ5caLRm4,Charlottenburg_North_1_9,Sophie’s Café & Backshop,52.5113335,13.297771,4.5,cafe,"Bismarckstraße 67, Berlin"
ChIJvTIpyidRqEcRe3jzjIH94yc,Charlottenburg_North_1_9,Trattoria Toscana,52.51412260000001,13.2974368,4.6,restaurant,"Schloßstraße 45, Berlin"
ChIJDbAx3Z1RqEcRjARzeiSHa4c,Charlottenburg_North_1_9,Orkide,52.5109826,13.2938951,4.8,restaurant,"Kaiserdamm 4, Berlin"
ChIJDZATtNpRqEcRI8-347fPnAA,Charlottenburg_North_1_9,Sushi for life,52.5108291,13.298514,4.8,restaurant,"Bismarckstraße 69, Berlin"
ChIJZQdcTixRqEcRlR1PsktSzFk,Charlottenburg_North_1_9,Zama Janan Restaurant pakistanisch und afghanisch,52.510497,13.2940503,4.9,restaurant,"Kaiserdamm 114, Berlin"
ChIJ1zIo09NRqEcR3x-75wMSugY,Charlottenburg_North_1_9,PUM korean restaurant,52.5132095,13.2925035,4.5,restaurant,"Knobelsdorffstraße 27, Berlin"
ChIJgR2I1qZRqEcRB8t1L8wqAwI,Charlottenburg_North_1_9,Vietnamesische Küche & Sushi,52.5101616,13.2977092,5.0,restaurant,"Windscheidstraße 1B, Berlin"
ChIJVVUlIyhRqEcRVPE5UHn0LeE,Charlottenburg_North_1_9,Papa Restaurant,52.51317299999999,13.2922722,4.6,restaurant,"Knobelsdorffstraße 27, Berlin"
ChIJZevyGwBRqEcRzoPpzkllr94,Charlottenburg_North_1_9,DuyNam Restaurant,52.5100803,13.2976651,4.5,restaurant,"Windscheidstraße 1, Berlin"
ChIJ3eD8TZpRqEcRFgl1YX46xFU,Charlottenburg_North_1_9,VIET BOWL - Kaiserdamm,52.5109697,13.2926222,4.9,restaurant,"Kaiserdamm 6, Berlin"
ChIJFR0WHUFRqEcRevp75Oa9lT4,Charlottenburg_North_1_9,Hewrî Café & Restaurant,52.51494,13.29452,5.0,restaurant,"Nehringstraße 23-24, Berlin"
ChIJ6cWwFyBRqEcRZ-4COezF9co,Charlottenburg_North_1_10,Deutsche Oper Berlin,52.5120793,13.308348,4.6,tourist_attraction,"Bismarckstraße 35, Berlin-Bezirk Charlottenburg-Wilmersdorf"
ChIJfTw58CBRqEcRsfjeeKtLO_E,Charlottenburg_North_1_10,Rogacki,52.5129281,13.3053401,4.3,meal_takeaway,"Wilmersdorfer Straße 145/46, Berlin-Bezirk Charlottenburg-Wilmersdorf"
ChIJT-MUDiBRqEcR8kVYUnDWFFg,Charlottenburg_North_1_10,Ristorante Rosati,52.5113544,13.3077935,4.7,restaurant,"Bismarckstraße 88, Berlin-Bezirk Charlottenburg-Wilmersdorf"
ChIJ_9yybR9RqEcRMSEgOCAbiZM,Charlottenburg_North_1_10,Rumpelkiste,52.5138196,13.312087,4.2,bar,"Zillestraße 22, Berlin"
ChIJXYRvkh9RqEcRf2lbJ5Z-1BI,Charlottenburg_North_1_10,Don Giovanni,52.5121885,13.3112923,4.5,restaurant,"Bismarckstraße 28, Berlin-Bezirk Charlottenburg-Wilmersdorf"
ChIJtxxA6yBRqEcReLFgtV2cmXE,Charlottenburg_North_1_10,La Femme,52.5112351,13.3055636,4.7,restaurant,"Wilmersdorfer Straße 135, Berlin"
ChIJ6cWwFyBRqEcREnOTagieDRE,Charlottenburg_North_1_10,Restaurant Deutsche Oper,52.51252359999999,13.3090858,4.8,restaurant,"Bismarckstraße 35, Berlin"
ChIJy55xEmdRqEcR2wZIOCTPqbA,Charlottenburg_North_1_10,Ristorante Verbano,52.51244,13.30971,4.7,restaurant,"Krumme Straße 74, Berlin-Bezirk Charlottenburg-Wilmersdorf"
ChIJj7ui2BRRqEcRIKe2O4-DPdM,Charlottenburg_North_1_10,EAT HAPPY,52.511575,13.309712,,meal_takeaway,"Bismarckstraße 91, Berlin"
ChIJb-WoFCBRqEcRVMT0E_rcjd4,Charlottenburg_North_1_10,Crispy Döner,52.51203409999999,13.3075374,4.6,restaurant,"Richard-Wagner-Straße 2, Berlin"
ChIJ5eQqlB9RqEcR_qxGU5fbd9I,Charlottenburg_North_1_10,Nin Hao,52.5122572,13.312173,4.4,restaurant,"Bismarckstraße 24, Berlin-Bezirk Charlottenburg-Wilmersdorf"
ChIJ5SXGe71RqEcR3BHkGdVh9dk,Charlottenburg_North_1_10,Bollywood Tadka,52.5135692,13.3067291,4.8,restaurant,"Richard-Wagner-Straße 13, Berlin"
ChIJpRfDeyBRqEcRm4ANG4nAfPQ,Charlottenburg_North_1_10,Kebab House,52.5113423,13.3060158,,restaurant,Germany
ChIJrSuJ8SBRqEcRz1Vm2JtuWyg,Charlottenburg_North_1_10,Taypar Burger,52.5126734,13.3053558,4.2,restaurant,"Wilmersdorfer Straße 143-144, Berlin"
ChIJ32XrBCFRqEcRknLcz-2AFRM,Charlottenburg_North_1_10,Vereinigte Berliner Burschenschaft Thuringia,52.5141698,13.3064181,3.8,bar,"Richard-Wagner-Straße 19, Berlin-Bezirk Charlottenburg-Wilmersdorf"
ChIJJ_EX8yBRqEcRtG8Y54OE8DU,Charlottenburg_North_1_10,Bat Viet,52.5124831,13.3052896,4.4,restaurant,"Wilmersdorfer Straße 142, Berlin-Bezirk Charlottenburg-Wilmersdorf"
ChIJMfcJ-QJRqEcRSSkkVg0ygX4,Charlottenburg_North_1_10,Café KALI - From KALI with love,52.510256,13.3076087,4.8,cafe,"Schillerstraße 35, Berlin"
ChIJLxT-RwBRqEcRHj7BTt_KsKs,Charlottenburg_North_1_10,Alte Forno,52.51176510000001,13.3053811,3.9,restaurant,"Wilmersdorfer Straße 137, Berlin"
ChIJG55dAuVRqEcRHW4uWjZbPzs,Charlottenburg_North_1_10,Harry's Sliders,52.51089990000001,13.305921,4.1,restaurant,"Wilmersdorfer Straße 133, Berlin"
ChIJMd0kjdJRqEcRm_wqMpf57j8,Charlottenburg_North_1_10,ORIENT BITES,52.51089990000001,13.305921,,restaurant,"Wilmersdorfer Straße 133, Berlin"
ChIJJ-Wdh99QqEcRV_q8tIvP6IA,Charlottenburg_North_1_10,Kebab Berlin ER-CE GmbH,52.5108914,13.3059107,3.3,restaurant,"Wilmersdorfer Straße 133, Berlin-Bezirk Charlottenburg-Wilmersdorf"
ChIJo5ZmCwBRqEcRy_dkQjqxIZs,Charlottenburg_North_1_10,CITIR Gemüse Kebab,52.5112816,13.3054827,4.1,restaurant,"Wilmersdorfer Straße 135, Berlin"
ChIJIYnNV7FRqEcRCzBdja0aka8,Charlottenburg_North_1_10,Dr. foody,52.5133215,13.3052189,5.0,restaurant,"Wilmersdorfer Straße 147, Berlin"
ChIJ2eabkiBRqEcRgcPA6WWtwiM,Charlottenburg_North_1_10,Steinofen Pizza,52.5124048,13.3048427,4.6,meal_takeaway,"Wilmersdorfer Straße 32, Berlin-Bezirk Charlottenburg-Wilmersdorf"
ChIJtxxA6yBRqEcRhgyXcQaQavU,Charlottenburg_North_1_10,Falafel,52.5126235,13.3048266,4.7,restaurant,"Wilmersdorfer Straße 32, Berlin"
ChIJ-WJVTHxRqEcRFZQiwi8lurQ,Charlottenburg_North_1_10,Il picolo Castello del Gelato,52.5127488,13.3048185,4.2,restaurant,"Wilmersdorfer Straße 32, Berlin"
ChIJ49WFFx1RqEcRXjnoxgk2cyY,Charlottenburg_North_1_11,Manufactum Brot & Butter,52.5108794,13.3228382,4.2,cafe,"Hardenbergstraße 4-5, Berlin-Bezirk Charlottenburg-Wilmersdorf"
ChIJB_q4QR1RqEcRwrVYkC6fQ58,Charlottenburg_North_1_11,Manjurani,52.51017270000001,13.3227608,4.1,restaurant,"Knesebeckstraße 4, Berlin-Bezirk Charlottenburg-Wilmersdorf"
ChIJy8iRIxxRqEcRejbS1qLH2tM,Charlottenburg_North_1_11,Chen's Wok,52.51330050000001,13.3186024,4.0,restaurant,"Otto-Suhr-Allee 11-13, Berlin-Bezirk Charlottenburg-Wilmersdorf"
ChIJmdNjwB1RqEcRh72CAbwJHUQ,Charlottenburg_North_1_11,Schillerklause,52.51112999999999,13.3185463,4.4,restaurant,"Schillerstraße 10, Berlin-Bezirk Charlottenburg-Wilmersdorf"
ChIJ49WFFx1RqEcRAUBsiXbyBTE,Charlottenburg_North_1_11,CARAS,52.5110854,13.3224447,3.9,cafe,"Hardenbergstraße 4, Berlin-Bezirk Charlottenburg-Wilmersdorf"
ChIJScImDhxRqEcRoFyg5QHoBNU,Charlottenburg_North_1_11,Dave B. Taste Five,52.5140448,13.3186147,4.2,restaurant,"Otto-Suhr-Allee 6-16, Berlin"
ChIJBZmOf01RqEcRWhP8C-Osyro,Charlottenburg_North_1_11,REWE To Go bei Aral,52.5127877,13.3192673,3.9,supermarket,"Bismarckstraße 2, Berlin-Bezirk Charlottenburg-Wilmersdorf"
ChIJOzqT6OpRqEcRpAYqBRLEcWc,Charlottenburg_North_1_11,Österelli,52.51260980000001,13.318305,4.6,restaurant,"Bismarckstraße 6, Berlin"
ChIJXfMsIGVRqEcRWKSzGZZX8GI,Charlottenburg_North_1_11,tiger club vegan sushi,52.51001949999999,13.3233941,4.6,restaurant,"Knesebeckstraße 99a, Berlin"
ChIJIyv_Mm5RqEcRlGW8qVnQBzM,Charlottenburg_North_1_11,Como Berlin,52.50998,13.32341,4.5,restaurant,"Knesebeckstraße 99, Berlin"
ChIJ7YCzHQFRqEcRkSQ6-XarVLw,Charlottenburg_North_1_12,Schleusenkrug,52.5112761,13.3358521,4.3,cafe,"Müller-Breslau-Straße 14b, Berlin"
ChIJx4yH3gZRqEcRoqmoKpHMLDo,Charlottenburg_North_1_12,Burger King,52.5140037,13.3370342,3.5,restaurant,"Straße des 17. Juni 100, Berlin"
ChIJdZAo8QNRqEcR2JR3BLWnQSI,Charlottenburg_North_1_12,Capt'n Schillow,52.51275349999999,13.3318106,4.5,restaurant,"Am Charlottenburger Tor, Straße des 17. Juni 113, Berlin"
ChIJ7YZqMlRRqEcRZre7b_rIuZs,Charlottenburg_North_1_12,Le Mont Liban Restaurant,52.5130559,13.3356287,4.3,restaurant,"am S-bahnhof Tiergarten, Straße des 17. Juni 131, Berlin"
ChIJRxwOIG9RqEcRAG9ng57fOeI,Charlottenburg_North_1_12,Charterschiff MS Pauline 1901,52.5126974,13.3318387,4.8,travel_agency,"Am Charlottenburger Tor, Straße des 17. Juni 113, Berlin"
ChIJoUZGddBRqEcRFKyclPqUolY,Charlottenburg_North_1_12,Wurst Hannes,52.51039050000001,13.3356735,3.2,meal_takeaway,"Zoo Berlin, Hardenbergplatz, Stadtbahnbogen 513, Berlin"
ChIJQekq27VXqEcRFRIintDxv-E,Charlottenburg_North_2_1,Imbiss im Südpark Spandau,52.51914,13.19219,4.8,restaurant,"Am Südpark 51, Berlin-Bezirk Spandau"
ChIJgc7pV7FXqEcR5ExV5N7q1qY,Charlottenburg_North_2_1,TOTTI,52.51742029999999,13.1974532,4.6,meal_takeaway,"Pichelsdorfer Straße 43, Berlin"
ChIJFaX6495WqEcRmxXJz39N2Xw,Charlottenburg_North_2_6,Bäcker Wiedemann – Bäckerei Charlottenburg-Wilmersdorf,52.519123,13.257431,4.0,bakery,"Reichsstraße 37, Berlin-Bezirk Charlottenburg-Wilmersdorf"
ChIJ-1XjfCdXqEcRI6J1Bw-gd60,Charlottenburg_North_2_6,Westend Grill,52.5159634,13.2606261,4.4,meal_takeaway,"Reichsstraße 81, Berlin"
ChIJ8dDWn9hWqEcRbj6hgUsUPhI,Charlottenburg_North_2_6,Il Cardinale,52.5164359,13.2598962,4.2,restaurant,"Olympische Straße 2, Berlin"
ChIJyUg9YydXqEcRIOFm40CQqP0,Charlottenburg_North_2_6,Wiener Conditorei Caffeehaus,52.5159457,13.260378,4.3,cafe,"Reichsstraße 81, Berlin-Bezirk Charlottenburg-Wilmersdorf"
ChIJc5hTn9hWqEcRZHiHqNpwADk,Charlottenburg_North_2_6,Westend-Klause,52.5165345,13.2599432,4.5,bar,"Reichsstraße 80B, Berlin-Bezirk Charlottenburg-Wilmersdorf"
ChIJAz0sOwBXqEcRO3yLTE8Gbs0,Charlottenburg_North_2_6,Kosher Deli Golcca,52.519282,13.2577202,4.9,restaurant,"Meiningenallee 1, Berlin-Bezirk Charlottenburg-Wilmersdorf"
ChIJCSR5miBXqEcRh9v1kM28W30,Charlottenburg_North_2_6,Epavlis,52.5162718,13.2545373,4.5,restaurant,"Olympische Straße 30, Berlin-Bezirk Charlottenburg-Wilmersdorf"
ChIJMzlOzGNXqEcR6rkvAg0dopg,Charlottenburg_North_2_6,Lumia Gelato e Caffé,52.5168521,13.2615932,4.6,cafe,"Steubenplatz 5, Berlin"
ChIJe2ZPJddWqEcRSSgmEv8S1KA,Charlottenburg_North_2_7,Mendoza Steakhaus,52.5195558,13.2707416,4.7,restaurant,"Spandauer Damm 157, Berlin-Bezirk Charlottenburg-Wilmersdorf"
ChIJ1XOzxtZWqEcRjH1tOsPmwVY,Charlottenburg_North_2_7,Shell,52.51918430000001,13.272248,3.3,gas_station,"Spandauer Damm 151, Berlin-Bezirk Charlottenburg-Wilmersdorf"
ChIJ9-J4YitRqEcR6Lbhgrmt_Ik,Charlottenburg_North_2_8,Tasty Grill Haus,52.5188929,13.284741,4.4,restaurant,"Spandauer Damm 90, Berlin-Bezirk Charlottenburg-Wilmersdorf"
ChIJUyd5gCtRqEcRq62xUqTkzQo,Charlottenburg_North_2_8,Tasty 63,52.5187313,13.2861067,4.5,restaurant,"Spandauer Damm 75, Berlin-Bezirk Charlottenburg-Wilmersdorf"
ChIJr8UW59RWqEcRwAsIxcyRbg4,Charlottenburg_North_2_8,Lotus Lounge,52.5171749,13.2791778,4.8,cafe,"Dharma Mati Rigpa-Zentrum, Soorstraße 85, Berlin-Bezirk Charlottenburg-Wilmersdorf"
ChIJo2N6uytRqEcR2OL74ClChE8,Charlottenburg_North_2_8,Asia Sushi Food Berlin,52.5168598,13.2860751,4.2,restaurant,"Parkplatz, Sophie-Charlotten-Straße 25, Berlin"
ChIJ1SCVJKpRqEcRO7VfQkBpTwE,Charlottenburg_North_2_8,La Famiglia,52.5182537,13.2820084,4.9,restaurant,"Spandauer Damm 101, Berlin"
ChIJJYH0IjRXqEcRyJBDj2HWEA8,Charlottenburg_North_2_8,Nikuya Yakiniku Japanese BBQ Restaurant,52.51703699999999,13.2811291,4.9,restaurant,"Königin-Elisabeth-Straße 52, Berlin"
ChIJuQupUQBRqEcRzdNX3qGnRog,Charlottenburg_North_2_8,Chibo Westend,52.5175648,13.2857602,4.8,restaurant,"Am Bahnhof Westend 2, Berlin"
ChIJjymyMnJXqEcR2kh7gcPmN10,Charlottenburg_North_2_8,PHO 1977 am ICC,52.5179497,13.2809546,4.7,restaurant,"Königin-Elisabeth-Straße 60, Berlin"
ChIJo2N6uytRqEcRKDmY6hSG7SQ,Charlottenburg_North_2_8,Sushi Express 24,52.5168532,13.2861117,4.3,restaurant,"Parkplatz, Sophie-Charlotten-Straße 25, Berlin"
ChIJ08drewBXqEcRfeeGamIDAEw,Charlottenburg_North_2_8,Chefdönerkebap,52.51866099999999,13.2805828,4.6,restaurant,"Spandauer Damm 112, Berlin"
ChIJdxjO1H9RqEcRPg3HqUuZDw4,Charlottenburg_North_2_8,Chiba Sushi,52.5189956,13.2857252,4.8,restaurant,"Spandauer Damm 82, Berlin"
ChIJd261X-ZRqEcRyS7IlrnzdTI,Charlottenburg_North_2_8,Beers Bistro,52.5157561,13.2805596,4.6,restaurant,"Königin-Elisabeth-Straße 49, Berlin"
ChIJq6rGiytRqEcRgGNypWeP0UU,Charlottenburg_North_2_8,Öz Kebap,52.5182823,13.2870482,4.1,restaurant,"Sophie-Charlotten-Straße 104, Berlin-Bezirk Charlottenburg-Wilmersdorf"
ChIJr8UW59RWqEcR3FbWSTEpjXI,Charlottenburg_North_2_8,Dharma Mati – Buddhistisches Zentrum,52.5172697,13.279236,4.7,cafe,"Soorstraße 85, Berlin-Bezirk Charlottenburg-Wilmersdorf"
ChIJUVtdpihRqEcRoXsThTlTVyU,Charlottenburg_North_2_9,Don Camillo,52.5166809,13.2957003,4.5,restaurant,"Schloßstraße 7, Berlin-Bezirk Charlottenburg-Wilmersdorf"
ChIJHxwghSVRqEcRgdEQSM9JoiE,Charlottenburg_North_2_9,Opera Italiana,52.5192768,13.2984429,4.7,restaurant,"Spandauer Damm 5, Berlin"
ChIJQWMp0yhRqEcR75SSHGENgi0,Charlottenburg_North_2_9,GLAUBE LIEBE HOFFNUNG,52.51764,13.293834,4.5,bar,"Neufertstraße 16, Berlin-Bezirk Charlottenburg-Wilmersdorf"
ChIJzTha5ihRqEcR5euESmHb14A,Charlottenburg_North_2_9,DöPi 19,52.5162814,13.2937094,4.8,meal_takeaway,"Nehringstraße 4A, Berlin"
ChIJ6RZs1S5RqEcR4nHXgI3khO0,Charlottenburg_North_2_9,Trattoria Fra Diavolo,52.5178871,13.2930872,4.3,meal_takeaway,"Neufertstraße 22, Berlin-Bezirk Charlottenburg-Wilmersdorf"
ChIJ-0f8hChRqEcRQUv-nAGPaY0,Charlottenburg_North_2_9,goldesel,52.5154578,13.2951465,4.8,bar,"Seelingstraße 7, Berlin-Bezirk Charlottenburg-Wilmersdorf"
ChIJ3bvjDN1RqEcRlmWGu99pKNE,Charlottenburg_North_2_9,Indisches Restaurant Taj Charlottenburg,52.51753139999999,13.2968649,4.7,meal_takeaway,"Schloßstraße 64, Berlin"
ChIJYR2GdaJRqEcRkS0HwX7mVxE,Charlottenburg_North_2_9,Lumen Restaurant,52.51708410000001,13.296915,5.0,restaurant,"Schloßstraße 61, Berlin"
ChIJbZ4KSQBRqEcRtHgRXfs0y44,Charlottenburg_North_2_9,Olé Tapas Bar,52.51674870000001,13.2971357,4.8,bar,"Schloßstraße 60, Berlin"
ChIJV9Nn9a9RqEcRRNQH4lrVp-c,Charlottenburg_North_2_9,BabaCous,52.5163174,13.2958063,,restaurant,"Schloßstraße 10, Berlin"
ChIJ2-TknShRqEcRIIKq7XKDnqI,Charlottenburg_North_2_9,Café Morgenlicht,52.5157836,13.2959308,4.3,cafe,"Schloßstraße 13, Berlin-Bezirk Charlottenburg-Wilmersdorf"
ChIJ_9XNg8ZRqEcRFkcC9IXUOtY,Charlottenburg_North_2_9,Lumia Gelato e Caffé,52.5175176,13.2934538,4.7,cafe,"Nehringstraße 1, Berlin-Bezirk Charlottenburg-Wilmersdorf"
ChIJK7tN1ShRqEcRF3or9H6avIY,Charlottenburg_North_2_9,Pizza Pasta,52.5178349,13.2931901,4.0,restaurant,"Neufertstraße 22, Berlin-Bezirk Charlottenburg-Wilmersdorf"
ChIJ-xS93y5RqEcRQUVq1ThCyAA,Charlottenburg_North_2_9,Il Castello Schloss Charlottenburg,52.5189944,13.2935944,4.2,restaurant,"Spandauer Damm 23, Berlin"
ChIJDUxN0C5RqEcRLRZaxBisHUg,Charlottenburg_North_2_9,Taverna Karagiosis,52.5183706,13.292751,4.3,restaurant,"Klausenerplatz 4, Berlin-Bezirk Charlottenburg-Wilmersdorf"
ChIJRwR2cgBRqEcRfs4UJai9xeI,Charlottenburg_North_2_9,Kabul Palast Restaurant,52.51903369999999,13.2936247,4.8,restaurant,"Spandauer Damm 23, Berlin-Bezirk Charlottenburg-Wilmersdorf"
ChIJI_rXlrJRqEcRYDvIePzpXjw,Charlottenburg_North_2_9,Perserwich,52.51769279999999,13.3001113,4.8,restaurant,"Kaiser-Friedrich-Straße 5, Berlin-Bezirk Charlottenburg-Wilmersdorf"
ChIJmRreoxdRqEcRncZG2C8CwUk,Charlottenburg_North_2_9,Palace,52.5192709,13.2988613,4.8,restaurant,"Spandauer Damm 3, Berlin-Bezirk Charlottenburg-Wilmersdorf"
ChIJQyhAmiVRqEcRLIlbnKYDRkk,Charlottenburg_North_2_9,back time,52.5193046,13.2990179,4.3,bakery,"Spandauer Damm 1, Berlin-Bezirk Charlottenburg-Wilmersdorf"
ChIJ8bFwxyNRqEcRTRA8FJxHpJM,Charlottenburg_North_2_10,KARAMEL‘S •Italian Food•Ice Cream•Coffee&Desserts•fresh Juice•,52.5177575,13.3072377,4.2,cafe,"Otto-Suhr-Allee 106b, Berlin"
ChIJRW49pCNRqEcRlPdufaDszV4,Charlottenburg_North_2_10,miX.it,52.51840909999999,13.307972,4.8,restaurant,"Alt-Lietzow 7, Arcostraße 1, Berlin-Bezirk Charlottenburg-Wilmersdorf"
ChIJj2jnXyFRqEcRHeYSx2EjAJw,Charlottenburg_North_2_10,Sushi King Berlin,52.51633169999999,13.3063717,4.6,restaurant,"Richard-Wagner-Straße 49, Berlin"
ChIJBU0JySNRqEcRSsN5MVB9NGM,Charlottenburg_North_2_10,Kalimera Griechische tavernaki Berlin,52.51737120000001,13.307717,4.6,restaurant,"Otto-Suhr-Allee 104, Berlin"
ChIJtTc-AgBRqEcR06Vl8Fgpp8o,Charlottenburg_North_2_10,Die kleine Hofküche,52.5170831,13.3093811,5.0,restaurant,"Otto-Suhr-Allee 94, Berlin"
ChIJz_uenVVRqEcRP41coq6bJEc,Charlottenburg_North_2_10,Trattoria Rathaus Piazza,52.51694669999999,13.3090419,4.5,restaurant,"Otto-Suhr-Allee 96, Berlin"
ChIJdwEgsRRRqEcRBHsrKLd4L-E,Charlottenburg_North_2_10,Ресторан Итальянский Берлин,52.51693849999999,13.309115,1.0,restaurant,"Otto-Suhr-Allee 94, Berlin"
ChIJI9ayc5ZRqEcRWwZBw0kFAeo,Charlottenburg_North_2_10,Musti's Gemüse Döner Kebap,52.516511,13.3084606,4.7,restaurant,"Otto-Suhr-Allee 95, Berlin"
ChIJ8wYEyCNRqEcRUlNm6Vglkuw,Charlottenburg_North_2_10,Lale,52.5175045,13.307275,4.0,meal_takeaway,"Otto-Suhr-Allee 106, Berlin-Bezirk Charlottenburg-Wilmersdorf"
ChIJSYIqr1hRqEcRcXaOObUQ1PY,Charlottenburg_North_2_10,Golt'z kebap Charlottenburg,52.516852,13.3073937,4.9,restaurant,"Otto-Suhr-Allee 107, Berlin"
ChIJ34iQ7ERRqEcRtSPrRPV5o5I,Charlottenburg_North_2_10,NGONG NGONG - Asia Food,52.5174817,13.3067092,4.3,restaurant,"U-Bahnhof, Richard-Wagner-Platz, Berlin"
ChIJD2BrENtRqEcRPOEJKwi2pzQ,Charlottenburg_North_2_10,Pogila imbiss,52.517409,13.3064616,4.8,restaurant,"Am Ubahn, Richard-Wagner-Platz, Berlin"
ChIJu5IN9yFRqEcRSs9pXnH2EjQ,Charlottenburg_North_2_10,Pim Was Sonst!,52.5156669,13.3102949,3.8,restaurant,"Krumme Straße 94, Berlin-Bezirk Charlottenburg-Wilmersdorf"
ChIJ9cEi041RqEcRC0Dgkqmnxzs,Charlottenburg_North_2_10,Holly,52.517174,13.3052702,4.5,meal_takeaway,"Schustehrusstraße 3, Berlin"
ChIJLcq51RNRqEcRBGMzuO9LSM0,Charlottenburg_North_2_10,VVE Catering & Café,52.5172135,13.3050827,4.1,cafe,"Schustehrusstraße 5, Berlin"
ChIJ2XTfiyNRqEcRwIj2fV_QPcg,Charlottenburg_North_2_10,China Thai Imbiss,52.5181689,13.3052201,4.1,meal_takeaway,"Otto-Suhr-Allee 118, Berlin-Bezirk Charlottenburg-Wilmersdorf"
ChIJ9_Rg9yNRqEcRrGn4WIQPU1o,Charlottenburg_North_2_10,Thu Huong Asia,52.5171461,13.3047777,4.8,meal_takeaway,"Wilmersdorfer Straße 164, Berlin-Bezirk Charlottenburg-Wilmersdorf"
ChIJpebmaRpRqEcRxq2hhjTARZQ,Charlottenburg_North_2_11,Cafe am Salzufer,52.5181907,13.3234431,4.0,restaurant,"Salzufer 13, Berlin-Bezirk Charlottenburg-Wilmersdorf"
ChIJW_gjDXZRqEcR-SnwnFj_gCU,Charlottenburg_North_2_11,caribic-beach,52.5172344,13.3225824,5.0,restaurant,"Einsteinufer 47, Berlin-Bezirk Charlottenburg-Wilmersdorf"
ChIJhZo-JntRqEcR3P8BPNhyOyk,Charlottenburg_North_2_11,Imbiss,52.51779,13.32219,5.0,restaurant,"Einsteinufer 53, Berlin-Bezirk Charlottenburg-Wilmersdorf"
ChIJ_SBFywpRqEcRaP_ERFlRdoo,Charlottenburg_North_2_11,Trattoria Tranquilla,52.51723029999999,13.3212579,4.8,restaurant,"Abbestraße 15, Berlin"
ChIJH-GkOQZRqEcRUeX5yw_FXsA,Charlottenburg_North_2_12,Tiergarten-Quelle,52.5151878,13.3369127,4.5,bar,"S-Bahnbogen, Bachstraße 482, Berlin"
ChIJ41ojk7lRqEcReDsRIEJT0gw,Charlottenburg_North_2_12,DASHI,52.5166012,13.3325844,4.4,restaurant,"Englische Straße 21, Berlin"
ChIJ5Rmu7PFRqEcRjEZVjOWxbRA,Charlottenburg_North_2_12,Dong A Restaurant,52.5156535,13.3324231,4.7,restaurant,"Englische Straße 6, Berlin-Bezirk Charlottenburg-Wilmersdorf"
ChIJJSIlZa9RqEcRb1rTlCXgaxI,Charlottenburg_North_2_12,Biergarten der Tiergartenquelle,52.5151754,13.3369668,4.4,restaurant,"Bachstraße 11, Berlin"
ChIJby-1tkpWqEcR4R_QtmTW0u0,Charlottenburg_North_3_1,Café Barfly,52.52416600000001,13.1932269,4.6,cafe,"Brüderstraße 47, Berlin-Bezirk Spandau"
ChIJT9C9sEpWqEcR7fCSO92_Bjw,Charlottenburg_North_3_1,Salt & Pepper,52.52454099999999,13.1934237,4.4,restaurant,"Wilhelmstraße 147, Berlin-Bezirk Spandau"
ChIJXcNqhcpXqEcRI6KlK5T49JA,Charlottenburg_North_3_1,La cena,52.5220057,13.1900901,4.6,restaurant,"Ulmenstraße 27, Berlin-Bezirk Spandau"
ChIJT9C9sEpWqEcRGe1GjG_GA8Y,Charlottenburg_North_3_1,Solo Pizza,52.5243659,13.1933025,4.8,meal_takeaway,"Wilhelmstraße 147, Berlin-Bezirk Spandau"
ChIJUwRNALVXqEcRMJ9T0ZJjy3I,Charlottenburg_North_3_1,My Donose Kebap-Haus,52.5211274,13.194184,4.3,restaurant,"Adamstraße 11, Berlin-Bezirk Spandau"
ChIJTbIRyLRXqEcR1xuAnIHNr7Q,Charlottenburg_North_3_1,La Amistad,52.52272850000001,13.1968727,4.7,restaurant,"Weißenburger Straße 13a, Berlin"
ChIJMb5u9R1XqEcRUC6LfuoSbuo,Charlottenburg_North_3_5,Greens Bistro im Olympiapark,52.5208229,13.2435964,3.1,restaurant,"Friesenhof, Hanns-Braun-Straße, Berlin"
ChIJP6k4HZhXqEcRlGGZxk-PMUY,Charlottenburg_North_3_6,Ristorante Donna Fugata,52.5209848,13.2559974,4.5,meal_takeaway,"Gotha-Allee 29, Berlin"
ChIJ9QB_RttRqEcRnCUQbYlEOs4,Charlottenburg_North_3_8,Centro Italia | Trattoria Restaurant,52.5211388,13.2856169,4.5,bar,"Sophie-Charlotten-Straße 9-10, Berlin"
ChIJ8ez5cgBRqEcR9idTxTMXi-A,Charlottenburg_North_3_9,Ryso Asian Cuisine,52.5232166,13.2999198,5.0,restaurant,"Tegeler Weg 2, Berlin"
ChIJJyetaSVRqEcR6aYAXKcQrro,Charlottenburg_North_3_9,Restaurant Samowar,52.52098039999999,13.2999686,4.6,restaurant,"Luisenplatz 3, Berlin-Bezirk Charlottenburg-Wilmersdorf"
ChIJZ4jJ8d3CyawRLpFSedIn1kA,Charlottenburg_North_3_9,Efendy Internationale Küche,52.523098,13.300344,5.0,restaurant,"Tegeler Weg 1, Berlin"
ChIJO7IwbztRqEcRoinPA-qxSgY,Charlottenburg_North_3_10,Econtel,52.52363129999999,13.3064335,3.8,bar,"Sömmeringstraße 24-26, Berlin-Bezirk Charlottenburg-Wilmersdorf"
ChIJk69JzSJRqEcR8ud4ty8nRUs,Charlottenburg_North_3_10,CapRivi,52.52089,13.3072484,4.3,bar,"Am Spreebord, Berlin"
ChIJv-v7YztRqEcRIBA04hxETno,Charlottenburg_North_3_10,Lemongrass...Dein Vietnamese,52.523424,13.3069987,4.7,restaurant,"Quedlinburger Straße 45, Berlin"
ChIJc4mJbVJRqEcRDMZpaHGervg,Charlottenburg_North_3_10,Restaurant Bar Brass,52.5212272,13.3069555,4.5,cafe,"Am Spreebord 9, Berlin-Bezirk Charlottenburg-Wilmersdorf"
ChIJb3vQE6RRqEcRyp8-XHWWr_s,Charlottenburg_North_3_10,EAT HAPPY,52.523518,13.306366,3.4,meal_takeaway,"Sömmeringstraße 24, Berlin"
ChIJ780fG9AjZUERQ40ryOB1H4Q,Charlottenburg_North_3_11,BARES,52.52133930000001,13.3227854,4.6,restaurant,"Helmholtzstraße 37, Berlin-Bezirk Charlottenburg-Wilmersdorf"
ChIJycvtsxBRqEcRVgHSgRoU21s,Charlottenburg_North_3_11,Anatolische Küche,52.52097080000001,13.3221349,4.5,restaurant,"Helmholtzstraße 1a, Berlin"
ChIJDy1X-RBRqEcRmMzaf_Q-vCQ,Charlottenburg_North_3_11,Burger Heaven,52.5218794,13.3255597,3.9,restaurant,"Helmholtzstraße 28, Berlin-Bezirk Charlottenburg-Wilmersdorf"
ChIJLT8Y_xBRqEcRsc217zAA4cw,Charlottenburg_North_3_11,"Coffee, Cake & Food by Back Snack Bar",52.5219299,13.3261787,4.6,cafe,"Helmholtzstraße 27, Berlin-Bezirk Charlottenburg-Wilmersdorf"
ChIJAcTbzRZRqEcRDqf-xgH_tOM,Charlottenburg_North_3_11,lunch and more | Restaurant im Spreebogen Plaza Berlin,52.5233948,13.3224337,4.1,restaurant,"Pascalstraße 10, Berlin-Bezirk Charlottenburg-Wilmersdorf"
ChIJ99gS-hBRqEcRLtiNUW3GNYU,Charlottenburg_North_3_11,Il Pozzetto,52.5217944,13.325095,4.4,liquor_store,"Helmholtzstraße 30, Berlin-Bezirk Charlottenburg-Wilmersdorf"
ChIJ2auygYBRqEcR_pNYYyd4Hvw,Charlottenburg_North_3_11,Modo Mio,52.5215599,13.322497,4.8,restaurant,"Morsestraße 5, Berlin"
ChIJpQpQj6hRqEcRz6vPktR8VDY,Charlottenburg_North_3_11,Bistro Barnesto,52.52145,13.32196,4.9,meal_takeaway,"Helmholtzstraße 39 A, Berlin"
ChIJh8CBXwBRqEcRQWAQMX88aG8,Charlottenburg_North_3_11,Fancy Burger,52.5214161,13.3225221,3.1,restaurant,"Morsestraße 3, Berlin"
ChIJkyKXrlhRqEcRX7WUg-NBhMo,Charlottenburg_North_3_11,Friendly's Kitchen,52.5212162,13.3217943,5.0,restaurant,"Helmholtzstraße 40, Berlin"
ChIJpXf2lOJRqEcRA5_8GeHO8rc,Charlottenburg_North_3_11,Viet -Station,52.5215954,13.3238819,4.7,restaurant,"Helmholtzstraße 33, Berlin"
ChIJoSZyXKFRqEcRdJ6FD9EcI2c,Charlottenburg_North_3_11,Can's Mittagstisch,52.5209451,13.3220765,4.9,restaurant,"Helmholtzstraße 1A, Berlin"
ChIJvSu63A1RqEcRwYU6payQk8g,Charlottenburg_North_3_11,DOAN Restaurant - Asian Fusion & Sushi Bar,52.5223824,13.3243987,4.8,meal_takeaway,"Hallerstraße 28, Berlin"
ChIJs09HzNdRqEcRJSPgySoD218,Charlottenburg_North_3_11,Lovely Sushi & More,52.5216271,13.3244178,4.5,restaurant,"Helmholtzstraße 31, Berlin"
ChIJ285FVH9RqEcRQe4Ncv5zrA8,Charlottenburg_North_3_11,BiBIM HOUSE 86,52.5216234,13.3244244,5.0,restaurant,"Helmholtzstraße 31, Berlin"
ChIJnQHN-hBRqEcRpLE1oRxEy40,Charlottenburg_North_3_11,Ristorante,52.521796,13.3250201,,restaurant,"Pascalstraße, Berlin-Bezirk Charlottenburg-Wilmersdorf"
ChIJ-8PS-xBRqEcRHdh3B8er9h0,Charlottenburg_North_3_11,Il Lucano,52.52180670000001,13.3254441,4.4,restaurant,"Helmholtzstraße 29, Berlin-Bezirk Charlottenburg-Wilmersdorf"
ChIJ82SA_XhRqEcRfxjN1fJrxTQ,Charlottenburg_North_3_11,Anni´s Kitchen,52.5219426,13.3259005,4.7,restaurant,"Helmholtzstraße 26, Berlin"
ChIJF75581pRqEcRTbXOB-FYLlE,Charlottenburg_North_3_11,Trattoria il Sapore,52.52194269999999,13.3259006,4.9,restaurant,"Helmholtzstraße 27, Berlin"
ChIJKxiyYQ5RqEcR5s_5FLO6Sa0,Charlottenburg_North_3_12,Taverna Phaestos,52.5229446,13.3341849,4.6,restaurant,"Jagowstraße 16, Berlin"
ChIJwYgFwQ5RqEcRVmuqWD-QicY,Charlottenburg_North_3_12,eisbox,52.5222399,13.3361826,4.2,cafe,"Elberfelder Straße 27, Berlin"
ChIJq4vP_g5RqEcR75OrwiI-dHQ,Charlottenburg_North_3_12,Master Wok's,52.52245190000001,13.3342075,4.5,restaurant,"Jagowstraße 13, Berlin"
ChIJJ3v0AQ9RqEcRwlgZZWX1iG8,Charlottenburg_North_3_12,Pizza Teigmeister,52.521238,13.3340732,4.8,restaurant,"Levetzowstraße 10, Berlin"
ChIJObaKxA5RqEcROyU8bhduT0w,Charlottenburg_North_3_12,ProMo Restaurant,52.5220797,13.3362173,4.1,bar,"Dortmunder Straße 8, Berlin"
ChIJadaZpw9RqEcR8HdMfLPMnZw,Charlottenburg_North_3_12,Neretva Grill,52.52064310000001,13.3332856,4.3,restaurant,"Agricolastraße 26, Berlin"
ChIJ69XXmw5RqEcRt_iBHI3NXx4,Charlottenburg_North_3_12,Chum's,52.5233457,13.3359207,4.3,restaurant,"Elberfelder Straße 8, Berlin"
ChIJX0LOYltRqEcRqGZk7gQdpFE,Charlottenburg_North_3_12,Mokka,52.52162000000001,13.33625,4.9,restaurant,"Dortmunder Straße 9, Berlin"
ChIJfcB4otRRqEcRqCAsX9pIBlQ,Charlottenburg_North_3_12,REWE To Go bei Aral,52.5207624,13.3335831,4.7,supermarket,"Aral, Levetzowstraße 9, Berlin"
ChIJU7dQHY9RqEcRK1a4FwYOtUg,Charlottenburg_North_3_12,LIT Coffeebar & Bakery,52.52406529999999,13.3343234,4.8,cafe,"Jagowstraße 23, Berlin"
ChIJeeZ7fjJRqEcRUYpnM8O5aec,Charlottenburg_North_3_12,Chez Emil Französisches Restaurant,52.5212803,13.3374164,4.9,meal_takeaway,"Dortmunder Straße 12, Berlin"
ChIJoQOF0Q1RqEcRmnleKYklHfo,Charlottenburg_North_3_12,Asado Steakhaus,52.5243982,13.3344997,,restaurant,"Alt-Moabit 77, Berlin"
ChIJP0Vo0Q1RqEcR9Nty2wtvJOQ,Charlottenburg_North_3_12,Daphne,52.5244269,13.3344412,,meal_takeaway,"Alt-Moabit 77, Berlin"
ChIJHzyR0g1RqEcRbhv8bPGnR4k,Charlottenburg_North_3_12,Dominos,52.52453000000001,13.3350303,3.5,restaurant,"Alt-Moabit 79, Berlin"
ChIJyzDeaK5RqEcRXeb0zyCP0mQ,Charlottenburg_North_3_12,Himalaya Masala,52.5241322,13.3328398,4.9,restaurant,"Alt-Moabit 73a, Berlin"
ChIJeZL2YMhRqEcRxFfacUzgacM,Charlottenburg_North_3_12,Namaste Berlin,52.5241322,13.3328398,,restaurant,"Alt-Moabit 73a, Berlin"
ChIJzXXQWABRqEcRdn9hCuRFukI,Charlottenburg_North_3_12,Flavours of India,52.52414,13.33285,,restaurant,"Alt-Moabit 73A, Berlin"
ChIJ3Yv2335RqEcRZrWaJ4dzPSU,Charlottenburg_North_3_12,Stop&eat,52.52414,13.33285,4.2,restaurant,"Alt-Moabit 73A, Berlin"
ChIJCf731Z5RqEcRyoZk9lFhKKw,Charlottenburg_North_3_12,Panda Meister Bubble Tea & Dumplings,52.52414,13.33285,4.8,restaurant,"Alt-Moabit 73A, Berlin"
ChIJAxilCg5RqEcRYFTqHsDSIO4,Charlottenburg_North_3_12,Funa Sushi Moabit,52.52414,13.33285,3.1,restaurant,"Alt-Moabit 73a, Berlin"
ChIJJWKiHwBRqEcR0wAHeO65Doo,Charlottenburg_North_3_12,Via Fresca,52.5230146,13.3387426,5.0,restaurant,"Bochumer Straße 17, Berlin"
ChIJoYxzyA5RqEcRgl0hRtagvDs,Charlottenburg_North_3_12,Ajwa Halal Pakistanische und Indische Spezialitäten,52.5240909,13.3377214,4.7,restaurant,"Bochumer Straße 5, Berlin"
ChIJ7bBOAMlRqEcRECIyU9N8bD4,Charlottenburg_North_3_12,Moa Burger,52.5245319,13.3330266,5.0,restaurant,"Alt-Moabit 40, Berlin"
ChIJ2yLLDgRRqEcRdMOHfenJNp4,Charlottenburg_North_3_12,Tasty Chicken,52.5249599,13.3352284,4.6,restaurant,"Alt-Moabit 34A, Berlin"
ChIJqw7TCEpWqEcR1K5KroLRNZU,Charlottenburg_North_4_1,Ristorante Romana,52.5281051,13.194744,4.1,restaurant,"Wilhelmstraße 3-4, Berlin-Bezirk Spandau"
ChIJyc132EFQqEcRX91Y8lt_RKc,Charlottenburg_North_4_1,BANDIR kebap,52.52845980000001,13.1950136,4.5,restaurant,"Wilhelmstraße 1, Berlin-Bezirk Spandau"
ChIJWVSmBEpWqEcR6uXSiqLSPOo,Charlottenburg_North_4_1,Chettinad | Indian Restaurant Spandau,52.5286197,13.1948978,4.6,meal_takeaway,"Wilhelmstraße 1, Berlin-Bezirk Spandau"
ChIJk_iXOEpWqEcRC8Um08rxbHY,Charlottenburg_North_4_1,Yoko Sushi Lieferservice Spandau,52.52754519999999,13.1960964,4.1,restaurant,"Pichelsdorfer Straße 142, Berlin-Bezirk Spandau"
ChIJlX-XakpWqEcRya9o2Nlh7bU,Charlottenburg_North_4_1,Viettonic Berlin,52.52767360000001,13.1955857,3.5,meal_takeaway,"Pichelsdorfer Straße 143, Berlin"
ChIJmUqByFVXqEcR7Zj0nO6Ppvk,Charlottenburg_North_4_1,Sam’s Gemüse Kebap 2,52.5274181,13.1940492,5.0,restaurant,"Wilhelmstraße 8, Berlin"
ChIJf1yiCN1XqEcRaKqCcDVfjk8,Charlottenburg_North_4_1,Hähnchen König,52.52673249999999,13.1942769,3.8,restaurant,"Wilhelmstraße 8, Berlin-Bezirk Spandau"
ChIJA1l1iDVWqEcR8aCMYNjUxTY,Charlottenburg_North_4_1,Time 2 Eat,52.52746429999999,13.194576,4.5,restaurant,"Wilhelmstraße 8, Berlin-Bezirk Spandau"
ChIJHT73Q41XqEcRCZw2tb7gyJo,Charlottenburg_North_4_1,Der Geschmacksmeister,52.5260685,13.1928588,5.0,restaurant,"Wilhelmstraße 10, Berlin"
ChIJqTrXakpWqEcRyNnVugd3gUE,Charlottenburg_North_4_1,Vietnamesische Küche,52.52755079999999,13.1954999,,restaurant,"Pichelsdorfer Straße 143, Berlin"
ChIJoxZ5gExXqEcRniDHZpZq-7Y,Charlottenburg_North_4_1,AL Reef Cafe,52.5273005,13.1956497,4.8,cafe,"Pichelsdorfer Straße 139, Berlin"
ChIJy_KUA0pWqEcRSya2obkaeCQ,Charlottenburg_North_4_1,Mega Bistro,52.5287957,13.1940381,4.3,restaurant,"Seeburger Straße 91, Berlin-Bezirk Spandau"
ChIJaxOzMQBXqEcR09sYK7kj-0c,Charlottenburg_North_4_1,Mayas Restaurante Mexicano,52.52845509999999,13.1950123,4.7,restaurant,"Wilhelmstraße 1, Berlin"
ChIJ50p4ng1XqEcRxruenmJlC6s,Charlottenburg_North_4_1,Pizza Pasta Corner,52.5285574,13.1948354,,restaurant,"Wilhelmstraße 1, Berlin"
ChIJZaFjM9BXqEcR_ArrUzaFxg0,Charlottenburg_North_4_1,Domino's Pizza Berlin Spandau,52.528481,13.1908128,3.7,restaurant,"Seeburger Straße 11, Berlin"
ChIJla61sGVXqEcRheLJquCkgHA,Charlottenburg_North_4_1,King Konditorei حلويات ملك الشام الفرع الثاني,52.5277205,13.1960387,4.4,restaurant,"Pichelsdorfer Straße 144, Berlin"
ChIJSbgl4k5XqEcRxhx1B197bH8,Charlottenburg_North_4_1,Alreef,52.5277205,13.1960387,4.9,restaurant,"Pichelsdorfer Straße 144, Berlin"
ChIJDbVlG65XqEcR-YbirQptIZE,Charlottenburg_North_4_1,GoDumpling Spandau,52.5275569,13.1961656,1.0,restaurant,"Pichelsdorfer Straße 142, Berlin"
ChIJi3CDWABXqEcRD6uqhGI9HQE,Charlottenburg_North_4_1,MR Falafel,52.5285494,13.1959627,4.9,restaurant,"Kerstenweg 1, Berlin"
ChIJ-Tj5L6lXqEcRyyEd96AwSyE,Charlottenburg_North_4_1,Café Bro´s,52.5260727,13.1963795,4.9,bar,"Pichelsdorfer Straße 125, Berlin"
ChIJzcZzpkpXqEcR801gdhg-Qd8,Charlottenburg_North_4_1,Spandau Konditorei - حلويات شبانداو,52.5259009,13.1962853,,restaurant,"Pichelsdorfer Straße 123, Berlin"
ChIJyfa0MENXqEcRmFt7LUDo-8U,Charlottenburg_North_4_1,Curry OLLI,52.52909,13.1962101,4.6,meal_takeaway,"Wilhelmstraße 168, Berlin"
ChIJF_hlsLRXqEcR2LViWM63IKs,Charlottenburg_North_4_1,Straube - Feldküche Flinke Helfer Berlin,52.52915649999999,13.1961522,4.5,restaurant,"Wilhelmstraße 167/168, Berlin-Bezirk Spandau"
ChIJ1UQi1lNWqEcROzIcbbrNIW0,Charlottenburg_North_4_3,Treff Bistro,52.52666339999999,13.2191658,4.5,restaurant,"Ruhlebener Straße 136, Berlin-Bezirk Spandau"
ChIJATKAy6xXqEcRh4523qX0NsI,Charlottenburg_North_4_3,Imbiss mini golf,52.526805,13.2171517,3.6,restaurant,"Wilhelmstadt, Berlin"
ChIJ8foqr1ZWqEcR6neZHLcNuHQ,Charlottenburg_North_4_3,Family Imbiss Bistro(Döner),52.5267669,13.217165,4.5,meal_takeaway,"Charlottenburger Chaussee, Berlin"
ChIJ2QZQL8dXqEcRdfR3HWOHj3s,Charlottenburg_North_4_3,IKEA Restaurant Berlin-Spandau,52.52802049999999,13.2146949,4.0,restaurant,"Gewerbehof 10, Berlin-Bezirk Spandau"
ChIJeRDSx_tWqEcRGKALVElovNM,Charlottenburg_North_4_4,JET,52.5271,13.2341,4.4,gas_station,"Charlottenburger Chaussee 47, Berlin-Bezirk Spandau"
ChIJTbcz1PtWqEcRWqrcGNRfkU8,Charlottenburg_North_4_4,Burger King Berlin,52.5272222,13.2321861,3.6,restaurant,"Charlottenburger Chaussee 51-55, Berlin"
ChIJLR-ZNPpWqEcRTepKIQ8Uuv0,Charlottenburg_North_4_4,McDonald's,52.5270257,13.2333881,3.3,restaurant,"Charlottenburger Chaussee 49, Berlin-Bezirk Spandau"
ChIJidiIc-VWqEcRgYS18_2JBoE,Charlottenburg_North_4_5,Mischau GmbH & Co. KG,52.52779330000001,13.2432723,4.4,meal_takeaway,"Wiesendamm 31, Berlin-Bezirk Spandau"
ChIJR9FCScxWqEcR4tveW3BlGNM,Charlottenburg_North_4_8,Tunnel-Eck,52.52879050000001,13.2816093,4.3,bar,"Fürstenbrunner Weg 92, Berlin-Bezirk Charlottenburg-Wilmersdorf"
ChIJWVVM4zBRqEcRaUTisrt_eV4,Charlottenburg_North_4_9,Restaurant Dante,52.5263113,13.2978154,4.5,restaurant,"Tegeler Weg 16, Berlin-Bezirk Charlottenburg-Wilmersdorf"
ChIJaTL8OjFRqEcReXogWmnk0dY,Charlottenburg_North_4_9,Reederei Wolff (RRW),52.5273889,13.2967166,4.9,travel_agency,"Tegeler Weg 80, Berlin-Bezirk Charlottenburg-Wilmersdorf"
ChIJIfhL5jJRqEcRkfgrBGIKaGI,Charlottenburg_North_4_9,Party-Eventschiff Kreuz As,52.52731290000001,13.2966174,4.3,restaurant,"Tegeler Weg 80, Berlin"
ChIJmbt9YwBRqEcRdGwIqZSQ550,Charlottenburg_North_4_9,Kantine Landgericht Charlottenburg,52.52774119999999,13.2974468,5.0,restaurant,"Tegeler Weg, Berlin-Bezirk Charlottenburg-Wilmersdorf"
ChIJYQs10chRqEcRKBebnMQZkSw,Charlottenburg_North_4_9,Cookie Doughi,52.52819,13.2973999,4.7,cafe,"Tegeler Weg 23A, Berlin"
ChIJdYu0-UZRqEcRN4sCileXu0k,Charlottenburg_North_4_9,Kalonji,52.52957519999999,13.2965745,4.7,cafe,"Olbersstraße 1, Berlin"
ChIJG6KqDzxRqEcRYRJI2NzDJSo,Charlottenburg_North_4_10,Zum Straßenfeger,52.5259456,13.3095876,4.5,bar,"Kaiserin-Augusta-Allee 42, Berlin"
ChIJQ2wGGjxRqEcR-xCjUfvL1mE,Charlottenburg_North_4_10,Chekiang Chinese Food & More,52.5259396,13.3103148,4.2,restaurant,"Kaiserin-Augusta-Allee 41, Berlin-Bezirk Charlottenburg-Wilmersdorf"
ChIJuaTeczxRqEcR-Jk--Gm3GuM,Charlottenburg_North_4_10,Viet Hoang,52.5255589,13.3089274,4.6,restaurant,"Kaiserin-Augusta-Allee 88A, Berlin-Bezirk Charlottenburg-Wilmersdorf"
ChIJq6r2jDtRqEcRYedjAgKeAdM,Charlottenburg_North_4_10,Dao Nguyen Bistro,52.5255266,13.3087818,4.4,meal_takeaway,"Kaiserin-Augusta-Allee 88, Berlin-Bezirk Charlottenburg-Wilmersdorf"
ChIJN7ZzeR9RqEcRqH07pa4tYgw,Charlottenburg_North_4_10,Sushi For You Charlottenburg,52.52692940000001,13.3067297,4.7,meal_takeaway,"Lise-Meitner-Straße 2, Berlin-Bezirk Charlottenburg-Wilmersdorf"
ChIJQTfRDepRqEcRR30uja-XBog,Charlottenburg_North_4_10,Addis Abeba,52.52590679999999,13.3078124,4.7,restaurant,"Kaiserin-Augusta-Allee 46, Berlin"
ChIJj6kP_S9RqEcRnhXVvhqYFw4,Charlottenburg_North_4_10,Zur Gartenschänke,52.52837880000001,13.3111658,4.6,restaurant,"Kol.Gerickeshof 95, Berlin"
ChIJY-o2TABRqEcRbiijZZTN7Gc,Charlottenburg_North_4_10,Ha Long Bay Restaurant,52.5255682,13.3103157,4.4,meal_takeaway,"Kaiserin-Augusta-Allee 90, Berlin"
ChIJBfy7RyFRqEcRXUZnkI4eLjA,Charlottenburg_North_4_10,Kaiser Burger,52.5259673,13.3114335,4.6,restaurant,"Kaiserin-Augusta-Allee 38, Berlin"
ChIJIT1Nn-dRqEcRvzDewoQ6Ruw,Charlottenburg_North_4_10,Döner Imbiss Öz Kebabhaus,52.52555839999999,13.3074798,4.3,restaurant,"Kaiserin-Augusta-Allee 84, Berlin-Bezirk Charlottenburg-Wilmersdorf"
ChIJwcgZPzxRqEcRioZrVWth1Yk,Charlottenburg_North_4_10,Kaiserin Imbiss,52.5255973,13.3109811,4.4,meal_takeaway,"Kaiserin-Augusta-Allee 91, Berlin-Bezirk Charlottenburg-Wilmersdorf"
ChIJV0iTbt1RqEcR0l-rh6kaAAk,Charlottenburg_North_4_10,Timeless - Mexikanisches Restaurant Charlottenburg,52.5255138,13.3113482,4.4,cafe,"Kaiserin-Augusta-Allee 92, Berlin"
ChIJSdUwLDxRqEcRB0wXOa_5fZQ,Charlottenburg_North_4_10,Da Lio,52.5259635,13.3122503,4.2,meal_takeaway,"Kaiserin-Augusta-Allee 37, Berlin-Bezirk Charlottenburg-Wilmersdorf"
ChIJdXm5E1RRqEcRdKAxzq60gzA,Charlottenburg_North_4_10,Restaurant Phan Gia,52.5255546,13.3063541,4.3,restaurant,"Kaiserin-Augusta-Allee 81, Berlin-Bezirk Charlottenburg-Wilmersdorf"
ChIJl-wsDRVRqEcR6r1yNcn78p4,Charlottenburg_North_4_11,Toplife Asia-Multifood,52.5289313,13.3193203,4.4,restaurant,"Wiebestraße 40, Berlin"
ChIJ2SVN7btRqEcRm3fZ5dq3TZQ,Charlottenburg_North_4_11,Jemenitisches Restaurant المطعم اليمني,52.5278824,13.3261096,4.5,restaurant,"Huttenstraße 7, Berlin"
ChIJKf8IeRVRqEcRtkuZWUFdgYk,Charlottenburg_North_4_11,Good Rice,52.5287014,13.3185456,4.4,restaurant,"Huttenstraße 22, Berlin"
ChIJhX6bwAxRqEcRkZurgyAaAMU,Charlottenburg_North_4_12,Arminiusmarkthalle,52.5276885,13.3383945,4.3,supermarket,"Arminiusstraße 2-4, Berlin"
ChIJmwkakg1RqEcRvlheL4yhznc,Charlottenburg_North_4_12,Mauerwerk,52.52563199999999,13.3329329,4.6,bar,"Zwinglistraße 7, Berlin"
ChIJzXAjdw1RqEcR4Lwiqo-IQzY,Charlottenburg_North_4_12,Boğaziçi,52.5271354,13.3336046,4.2,restaurant,"Turmstraße 47A, Berlin"
ChIJ06ei9QxRqEcROuEuxqPc0R8,Charlottenburg_North_4_12,Pizza con Amore,52.5263795,13.3373256,4.7,meal_takeaway,"Turmstraße 82, Berlin"
ChIJW5jexNYjZUERMnbc4EN_-r0,Charlottenburg_North_4_12,McDarwich's Crispy,52.5263724,13.3376151,4.6,restaurant,"Turmstraße 83, Berlin"
ChIJETXn6gxRqEcRqPm68igQEpg,Charlottenburg_North_4_12,Zunftwirtschaft,52.5274808,13.3382989,4.4,restaurant,"Arminiusstraße 2-4, Berlin"
ChIJmy-WkQxRqEcR9zy_q-7qdNo,Charlottenburg_North_4_12,Cafeteria Patin Filiale 2,52.5267372,13.3382783,3.0,cafe,"Mathilde-Jacob-Platz 1, Im Rathaus Tiergarten, 3. OG rechts, Berlin"
ChIJhwvDlQxRqEcRiCxhKFWYQiM,Charlottenburg_North_4_12,Smoke & Barrel,52.52773000000001,13.3384001,4.4,restaurant,"Arminiusstraße 2, Bugenhagenstraße 19"
ChIJdUbklAxRqEcRE60laKje_nk,Charlottenburg_North_4_12,Naninka,52.527491,13.3385216,4.6,restaurant,"Arminiusstraße 2-4, Berlin"
ChIJv5y6igxRqEcR5k0CQ3dUybE,Charlottenburg_North_4_12,Humbaba Falafel,52.5263099,13.3382697,4.8,restaurant,"Turmstraße 85, Berlin"
ChIJ_wnP69YjZUERHjiHI07encI,Charlottenburg_North_4_12,KÖFTECİ Recep Usta,52.5269737,13.331262,4.4,restaurant,"Turmstraße 67, Berlin"
ChIJfdZaHwJOqEcRZuO6Zr-1QFQ,Charlottenburg_North_4_12,Lesendro,52.52819519999999,13.3387685,4.3,bar,"Bugenhagenstraße 19, Berlin"
ChIJk7XcyXJRqEcRo96SmYyha2o,Charlottenburg_North_4_12,Oldenburger Klause,52.52972,13.33572,4.1,bar,"Oldenburger Straße 40, Berlin"
ChIJY_E7lQxRqEcRxSxXa5IY7V8,Charlottenburg_North_4_12,Quan Hai Co,52.527824,13.3386537,4.0,restaurant,"Arminiusstraße 2-4, Berlin"
ChIJ0-Ht_QxRqEcR2YY7RoyodIE,Charlottenburg_North_4_12,RISA Chicken,52.5268709,13.3363689,4.6,restaurant,"Turmstraße 39, Berlin"
ChIJ1R5u2vhRqEcROjoUe5NrZxg,Charlottenburg_North_4_12,LA DÖNER VITA,52.52660299999999,13.3353344,3.7,restaurant,"Ottostraße 20, Berlin"
ChIJR4knAg1RqEcRMr45bWGW2rw,Charlottenburg_North_4_12,Favorit Gemüse Kebap,52.5268527,13.3360316,4.7,restaurant,"Turmstraße 40, Berlin"
ChIJZcfQrg1RqEcROOPxim5Z7Fg,Charlottenburg_North_4_12,Suppe & Grill Imren Süsswaren,52.5263048,13.3351711,4.3,restaurant,"Ottostraße 19, Berlin"
ChIJ21KQeelRqEcR7f_aP8NU44E,Charlottenburg_North_4_12,Sarihan Breakfast & more | Frühstückshaus,52.5268135,13.3364052,4.7,restaurant,"Turmstraße 39, Berlin"
ChIJZRodi3VRqEcRfSl9H-HqZ3k,Charlottenburg_North_4_12,Song Tra 79,52.5262523,13.3351066,4.8,restaurant,"Ottostraße 19, Berlin"
ChIJQYxD-wxRqEcRCGcuYDbvd4o,Charlottenburg_North_4_12,Pizza & Pasta,52.5267924,13.3366807,3.7,restaurant,"Turmstraße 38, Berlin"
ChIJCw9X-QxRqEcRzV-5t5bmHTc,Charlottenburg_North_4_12,Alte Forno,52.5268052,13.3369488,3.8,restaurant,"Turmstraße 37, Berlin"
ChIJAWoXcAtRqEcRCcOozmxw6CI,Charlottenburg_North_4_12,Sönmez Baklava,52.5269657,13.3370786,4.5,restaurant,"Turmstraße 36, Berlin"
ChIJGZru-kBRqEcRtnbo1EzJXIc,Charlottenburg_North_4_12,Burger Vision Smashburger,52.5273666,13.3326006,4.3,restaurant,"Turmstraße 49, Berlin"
ChIJQ6OZpXFRqEcRmta7nSywaHU,Charlottenburg_North_4_12,GoDumpling Tiergarten,52.52674400000001,13.3373645,,restaurant,"Turmstraße 35A, Berlin"
ChIJ3_M-xb1RqEcRa---_JalkwY,Charlottenburg_North_4_12,Smack Burger,52.52674400000001,13.3373645,4.7,restaurant,"Turmstraße 35A, Berlin"
ChIJwUqAVARRqEcRYtd_UMK9p_Q,Charlottenburg_North_4_12,Moabiter Döner,52.5267685,13.3374011,4.7,restaurant,"Turmstraße 35A, Berlin"
ChIJn9HEm9xRqEcRl_zoSIxTBX4,Charlottenburg_North_4_12,Favorit Kebap,52.5267685,13.3374011,,restaurant,"Turmstraße 35A, Berlin"
ChIJq9Kw47JRqEcRtw20UygETOM,Charlottenburg_North_4_12,Güneş Gözlemeci,52.52697070000001,13.3375357,4.8,restaurant,"Bremer Straße 75, Berlin"
ChIJ-Yq9WAxRqEcRHmkDnNDQfbw,Charlottenburg_North_4_12,"Gercek Grillhähnchen - Chicken, Salad & Fries",52.52630800000001,13.337307,4.6,restaurant,"Turmstraße 82, Berlin"
ChIJC4AbiRdRqEcRHEcEjfnbTBY,Charlottenburg_North_4_12,La Flammerie,52.5275045,13.3381422,4.3,restaurant,"Arminiusstraße, Berlin"
ChIJQXtb0zxRqEcRmzfqsKmznyM,Charlottenburg_North_4_12,Khaugalli - Mumbai Indian Street Food,52.52767739999999,13.3381965,4.5,meal_takeaway,"Arminiusstraße 2 - 4, Berlin"
ChIJiwXerqFRqEcR8hRPBglv8uk,Charlottenburg_North_4_12,FritziBrause,52.5288505,13.3369538,,meal_takeaway,"Waldenserstraße 2, Berlin"
ChIJUX1yrx5RqEcR7Qjo4gsV8wI,Charlottenburg_North_4_12,MANA Food Moabit,52.5282997,13.3379069,4.5,cafe,"Bremer Straße 67, Berlin"
ChIJZZn8xgxRqEcRMX4yFmdKVx4,Charlottenburg_North_4_12,Berliner Schlemmer Varieté,52.5275285,13.338404,4.4,restaurant,"Arminiusstraße 2 - 4, Berlin"
ChIJrda5cKhRqEcRsNIJWkYvg2k,Charlottenburg_North_4_12,Restaurant Hunger?!,52.5272982,13.3314106,5.0,meal_takeaway,"Turmstraße 53, Berlin"
ChIJVZ7jcABRqEcR0EGmxeWVsDc,Charlottenburg_North_4_12,Afghan Dubai restaurant,52.5272982,13.3314106,4.7,restaurant,"Turmstraße 53, Berlin"
ChIJhwvDlQxRqEcR3Z-kweQhr6Y,Charlottenburg_North_4_12,Alimentari e Vini,52.5275987,13.3385323,4.6,meal_delivery,"Arminiusmarkthalle, Arminiusstraße 2-4, Berlin"
ChIJJaxVHQBRqEcRee4fxi4RJZY,Charlottenburg_North_4_12,Mistat Vegan - çig köfte öz antep baklava,52.5272837,13.3313049,3.8,restaurant,"Turmstraße 54, Berlin"
ChIJ-U79vwxRqEcRZYW3IGTbe18,Charlottenburg_North_4_12,Drei Damen vom Grill,52.5276017,13.3385456,4.5,meal_takeaway,"Arminiushalle 1, Berlin"
ChIJ50v2iQxRqEcRjrHVIF6tr3c,Charlottenburg_North_4_12,Curry-Eck,52.52630480000001,13.3383715,4.2,meal_takeaway,"Turmstraße 85, Berlin"
ChIJiWYpvgxRqEcRYkl7gW2GkSc,Charlottenburg_North_4_12,Hanoi One,52.5276741,13.3386187,4.7,restaurant,"Arminiusstraße 2-4, Berlin"
ChIJY5sqltBRqEcRBIUMSJD-KvQ,Charlottenburg_North_4_12,Sweet Buns,52.525227,13.3331091,,restaurant,"Zwinglistraße 36, Berlin"
ChIJeeYQ_VdRqEcRufz8RiJ81XM,Charlottenburg_North_4_12,Cafe,52.527824,13.3386537,4.5,cafe,"Arminius Markthalle, Arminiusstraße 2, Berlin"
ChIJO7AQsMBRqEcR3zkqy6I_sDE,Charlottenburg_North_4_12,Brunch Arminiusmarkthalle / Der Hofladen,52.5277897,13.3386702,4.7,restaurant,"Arminiumarkthalle, Arminiusstraße 2-4, Berlin"
ChIJ1YiDymFRqEcRx2mWLQuJOA8,Charlottenburg_North_4_12,Pound & Pence,52.5279514,13.3386236,4.6,restaurant,"Arminiusstraße 2-4, Berlin"
ChIJOcMkm7JRqEcRzHXDoTWBTqo,Charlottenburg_North_4_12,Falafel Fellas,52.52773750000001,13.3387882,4.9,restaurant,"Arminiusstraße 2-4, Berlin"
ChIJix_lCCRRqEcROy4f9hidrzY,Charlottenburg_North_4_12,asaanka | jollof. rice. plantains. spice.,52.52773750000001,13.3387882,5.0,restaurant,"Arminiusstraße 2-4, Berlin"
ChIJD3JDvwxRqEcRx5UgP596AOc,Charlottenburg_North_4_12,Fischladen,52.52773750000001,13.3387882,4.8,restaurant,"Arminiusmarkthalle, Arminiusstraße 2-4, Berlin"
ChIJa2fur_lRqEcRcbI8-Lj3wSs,Charlottenburg_North_4_12,JuJu's Dumplings,52.5279317,13.3387974,5.0,restaurant,"Arminiusstraße 2-4, Berlin"
ChIJv-DmlO9RqEcRUWzxG7bJlv4,Charlottenburg_North_4_12,Pooneh Grill,52.5274693,13.3309263,4.9,restaurant,"Waldstraße 1, Berlin"
ChIJPwc_UNRRqEcRCmIwC-CITYA,Charlottenburg_North_4_12,Mangiare Berlin Moabit,52.5280106,13.3387937,4.5,meal_delivery,"Bugenhagenstraße 19, Berlin"
ChIJi5xAEOxRqEcRwD12xtlCnwo,Charlottenburg_North_4_12,Market Events Berlin,52.52819519999999,13.3387685,,bar,"Bugenhagenstraße 19, Berlin"
ChIJx6rw5wdRqEcReIrmMu6bRl0,Charlottenburg_North_4_12,MARKTHALLEN BAR Tapas- Spot und Seafood- Paradies in der Arminiusmarkthalle,52.5282033,13.3387706,4.2,bar,"Bugenhagenstraße 19, Berlin"
ChIJQZGYTqhRqEcRGkuYo6TZhQU,Charlottenburg_North_4_12,Restaurant Šljiva,52.5282033,13.3387706,4.5,restaurant,"Terrasse, Arminiusstraße 2-4 Eingang Bugenhagenstraße, Jonasstraße 19, Berlin"
ChIJaUksnw1RqEcRmupHcJlyiKQ,Charlottenburg_North_4_12,DER SCHMARRNKAISER,52.5279342,13.338956,4.8,restaurant,"Arminiusstraße 2-4, Berlin"
ChIJuTOm7BJRqEcRFM361Mn7ELg,Charlottenburg_North_4_12,Holzwurm,52.5282355,13.3311073,4.4,bar,"Waldstraße 6, Berlin"
ChIJ0eXwdABRqEcRR0Qr7uehHvY,Charlottenburg_North_4_12,Al Abdallah Chicken,52.52659939999999,13.3307761,4.2,restaurant,"Gotzkowskystraße 35, Berlin"
ChIJIRkNhhJRqEcRkH93TJO8U8Y,Charlottenburg_North_4_12,Baran Döner Station,52.527435,13.3306348,4.7,meal_takeaway,"Waldstraße 1, Berlin"
ChIJIw209TdWqEcRqxlX2w9efAo,Charlottenburg_North_5_1,Bäcker Wiedemann,52.5335754,13.1966551,3.8,bakery,"Brunsbütteler Damm 40, Berlin-Bezirk Spandau"
ChIJX-57OUhWqEcRbZyVGyO8Qeg,Charlottenburg_North_5_1,Sofra Frühstückscafé,52.5321858,13.1974615,4.3,bakery,"Klosterstraße 6-7, Berlin-Bezirk Spandau"
ChIJVTAz4uVXqEcRRGsITvnturI,Charlottenburg_North_5_1,EAT HAPPY,52.534332,13.193669,3.8,meal_takeaway,"Klosterstraße 3, Berlin"
ChIJ35gsAQBXqEcRaHCJ5bvbgfE,Charlottenburg_North_5_1,Tadka Twist,52.5338313,13.1956157,4.2,meal_takeaway,"Klosterstraße 3, Berlin"
ChIJVaG--jdWqEcRN_J_ZcRMR1k,Charlottenburg_North_5_1,Thang Long,52.5337858,13.1957501,3.3,meal_takeaway,"Klosterstraße 3, Berlin-Bezirk Spandau"
ChIJAY4eR1ZXqEcRZyKSxtTsRHU,Charlottenburg_North_5_1,Seeteufel,52.53378719999999,13.1958346,3.8,restaurant,"Klosterstraße 3, Berlin"
ChIJjcoMZABXqEcR3JqvDaTPORo,Charlottenburg_North_5_1,The Mood Burger,52.5311885,13.1965451,4.7,restaurant,"Klosterstraße 12, Berlin-Bezirk Spandau"
ChIJjejX2klWqEcRELqC-OysZDY,Charlottenburg_North_5_1,Burger Route Berlin,52.5307784,13.196159,4.1,store,"Klosterstraße 14, Berlin"
ChIJV52QQZxXqEcREde-yruAALU,Charlottenburg_North_5_1,Pizza Route Berlin,52.5307907,13.1961811,3.5,meal_delivery,"Klosterstraße 14, Berlin"
ChIJjcG0LwBXqEcReA0r0nQ6zCk,Charlottenburg_North_5_1,GURME,52.5316649,13.1968885,4.8,restaurant,"Klosterstraße 10, Berlin"
ChIJZcaqIydXqEcRypKpR2hbFDI,Charlottenburg_North_5_1,Tobefree,52.5330434,13.1968455,4.1,bar,"Brunsbütteler Damm 5, Berlin-Bezirk Spandau"
ChIJ1YOFto1XqEcRXafJMG-KIyk,Charlottenburg_North_5_1,Konak Cafe,52.53188069999999,13.1971944,4.2,cafe,"Klosterstraße 8, Berlin-Bezirk Spandau"
ChIJRSmkSY5XqEcRsz6PWQgqXOM,Charlottenburg_North_5_1,Ciao Bella Berlin Spandau Arcaden,52.5335689,13.196743,4.3,restaurant,"Klosterstraße 3 Spandau Arcaden, Berlin"
ChIJuVJMXL9XqEcRn2BSEy1JJ9s,Charlottenburg_North_5_1,Asiasushibar Van Tat,52.5330691,13.1890015,4.2,restaurant,"Grünhofer Weg 9, Berlin-Bezirk Spandau"
ChIJK4FIDJNXqEcRRAHo3oaK7tY,Charlottenburg_North_5_1,Sönmez Baklava Spandau,52.5311467,13.1970855,4.3,store,"Klosterstraße 30, Berlin"
ChIJKZZ9yklWqEcR2tH8P3rMojo,Charlottenburg_North_5_1,Restaurant Kristall,52.531314,13.1972201,4.1,restaurant,"Klosterstraße 31, Berlin-Bezirk Spandau"
ChIJy4TW9U9WqEcRWq48sbn04as,Charlottenburg_North_5_2,SKY TOWER RESTAURANT,52.5325855,13.210045,4.0,restaurant,"Freiheit 5, Berlin-Bezirk Spandau"
ChIJNUSxg09WqEcRGWX4Io77NNo,Charlottenburg_North_5_2,WE BiSS,52.5325132,13.2078904,4.4,meal_takeaway,"Freiheit 54, Berlin-Bezirk Spandau"
ChIJ85H1q1BWqEcROyYai4KSuFA,Charlottenburg_North_5_3,Comperio Gastronomiebetriebe UG,52.53146,13.2183,,restaurant,"Freiheit 13, Berlin-Bezirk Spandau"
ChIJb8YzpBVXqEcR4A7zq9rtDMw,Charlottenburg_North_5_7,foodbüro,52.5343293,13.2689219,3.8,restaurant,"Wohlrabedamm 32, Berlin"
ChIJdfZbBcpWqEcR2PZUbBg09-M,Charlottenburg_North_5_8,Shell,52.534381,13.2830349,3.4,gas_station,"Letterhausweg 2, Berlin"
ChIJ6RxPd2tRqEcR6xlTee-nAH8,Charlottenburg_North_5_11,Wok Man,52.53276,13.3261,4.5,restaurant,"Sickingenstraße 7, Berlin"
ChIJh0uuuUdRqEcRiygg41sWlDU,Charlottenburg_North_5_11,EAT HAPPY,52.53449699999999,13.32408,3.5,meal_takeaway,"Müllerstraße 12, Berlin"
ChIJRxHUm21RqEcRpdOFiFp9dWc,Charlottenburg_North_5_12,Crunch Kantine,52.53279060000001,13.333814,4.8,restaurant,"Siemensstraße 16, Berlin"
ChIJH5WrAW1RqEcRPQdHtimz30w,Charlottenburg_North_5_12,KLEiner dieser Tage,52.5328787,13.3370779,4.8,restaurant,"Unionstraße 3, Berlin"
ChIJazoQ7W1RqEcRDBX_qI_VY0M,Charlottenburg_North_5_12,Marktküche im Hamberger Großmarkt,52.5335936,13.3339537,3.8,restaurant,"Erna-Samuel-Straße 13, Berlin"
ChIJK1yDv9JRqEcRuNkUgVyQloM,Charlottenburg_North_5_12,Al Nafetha,52.5329174,13.3370158,4.7,restaurant,"Unionstraße 3, Berlin"
ChIJi1Aqo3JRqEcRWoxN7JnWEZc,Charlottenburg_North_5_12,Nord-West Oase,52.5306697,13.3351494,4.6,bar,"Wiclefstraße 17, Berlin"
ChIJlaC_9jVRqEcRjC0_X5mHCUo,Charlottenburg_North_5_12,Wald-Kiosk Backshop Lotto,52.53112770000001,13.3312691,4.7,cafe,"Waldstraße 40, Berlin"
ChIJh4bu53ghZUERm-pdr5Ghb9U,Charlottenburg_North_6_1,Pizza Mann,52.5361127,13.1911623,4.8,meal_delivery,"Seegefelder Straße 41, Berlin-Bezirk Spandau"
ChIJ0694jTlWqEcRSqXXbR1vOv4,Charlottenburg_North_6_1,Sprint,52.5361025,13.1911734,4.1,gas_station,"Seegefelder Straße 41, Berlin-Bezirk Spandau"
ChIJ96htmjlWqEcRMz2_YsbcXHE,Charlottenburg_North_6_1,Dalmacija-Grill Spandau,52.5367424,13.1916751,4.4,restaurant,"Seegefelder Straße 42, Berlin-Bezirk Spandau"
ChIJ4z7ZIzpWqEcR4dPz4z6-A-o,Charlottenburg_North_6_1,Zur Spitze,52.53660619999999,13.1898923,4.0,bar,"Seegefelder Straße 47, Berlin-Bezirk Spandau"
ChIJMWioM9lXqEcRmu6KwWai7uc,Charlottenburg_North_6_1,Smash Your Burger,52.5370415,13.1886198,4.9,restaurant,"Seegefelder Straße 59, Berlin"
ChIJGYlZIQ9XqEcR5pn3qlJwL-A,Charlottenburg_North_6_1,Burger & Smash by Planada,52.5370415,13.1886198,4.8,restaurant,"Seegefelder Straße 59, Berlin"
ChIJv2B54kZWqEcR8U2GtSpZvSE,Charlottenburg_North_6_2,Charlotte,52.5372557,13.2022569,4.3,restaurant,"Charlottenstraße 14a, Berlin-Bezirk Spandau"
ChIJmbrIyEZWqEcRrjGzTR9Ucmg,Charlottenburg_North_6_2,Steakeria Satt und Selig,52.53826429999999,13.2044476,4.0,restaurant,"Carl-Schurz-Straße 47, Berlin-Bezirk Spandau"
ChIJTwVlJ0dWqEcR3FmFOF1pTrQ,Charlottenburg_North_6_2,Kim Hai Asia Food - Imbiss - Sushi - Restaurat Berlin,52.53811750000001,13.2024251,3.7,meal_delivery,"Moritzstraße 5, Berlin-Bezirk Spandau"
ChIJpXCqqkZWqEcRSmn7glUj8D8,Charlottenburg_North_6_2,Cubi Restaurant,52.5385206,13.2067077,4.4,restaurant,"Havelstraße 2, Berlin-Bezirk Spandau"
ChIJ9yK8JkdWqEcR_0oeC8yzMJc,Charlottenburg_North_6_2,Restaurant Alt-Spandau,52.53819859999999,13.2020809,4.5,restaurant,"Moritzstraße 7, Berlin"
ChIJPQpYq0ZWqEcRvGCY1h5aFE0,Charlottenburg_North_6_2,FADICE,52.5385547,13.2062464,4.7,restaurant,"Havelstraße 19, Berlin"
ChIJjWRvg0ZWqEcR-kW4BeiiUek,Charlottenburg_North_6_2,Phuong Dong,52.5365934,13.2051294,4.3,restaurant,"Breite Straße 20, Berlin-Bezirk Spandau"
ChIJuY14k0ZWqEcRo9OJ6XGy4ao,Charlottenburg_North_6_2,Bäcker Wiedemann Spandau,52.5370857,13.2043025,4.1,bakery,"Markt 2, Berlin-Bezirk Spandau"
ChIJr1IL6EZWqEcReFe2zJlTSCM,Charlottenburg_North_6_2,Burger King Berlin,52.5375494,13.2035031,3.5,restaurant,"Carl-Schurz-Straße 37, Berlin"
ChIJk4noUUFWqEcRpYYPzata5RY,Charlottenburg_North_6_2,Diyar Simit Evi Restaurant & Frühstückscafe,52.5387797,13.2064126,4.2,restaurant,"Havelstraße 10, Berlin-Bezirk Spandau"
ChIJ0UDXj0ZWqEcRR0ScLQe_KKE,Charlottenburg_North_6_2,La Bottega Da Franco,52.53662039999999,13.2047168,4.4,restaurant,"Breite Straße 56, Berlin-Bezirk Spandau"
ChIJuwR0jEZWqEcRmLKUaipAFPs,Charlottenburg_North_6_2,Fisch Frank,52.5364219,13.2040399,4.6,restaurant,"Charlottenstraße 7, Berlin"
ChIJ8-OWAURWqEcR3CWq6OgGkXc,Charlottenburg_North_6_2,Hasir,52.53833059999999,13.2066832,4.1,restaurant,"Breite Straße 43, Berlin-Bezirk Spandau"
ChIJcWYzA0RWqEcRUSsPs9ch6G0,Charlottenburg_North_6_2,Sy Restaurant Spandau,52.53790449999999,13.206736,4.4,restaurant,"Breite Straße 33, Berlin-Bezirk Spandau"
ChIJbxGH_XchZUERTZ73JGyLZSg,Charlottenburg_North_6_2,Restaurant*Bar MeilenStein,52.5396877,13.2061251,4.5,bakery,"Am Juliusturm 104, Berlin-Bezirk Spandau"
ChIJ_4cpTkFWqEcRFBRajkd8c7s,Charlottenburg_North_6_2,My Ha,52.53901270000001,13.2060488,4.2,restaurant,"Havelstraße 12, Berlin-Bezirk Spandau"
ChIJp1l2BERWqEcR3JI_clwC-44,Charlottenburg_North_6_2,Millefiori Eiscafé Trattoria,52.5380721,13.206964,4.4,bar,"Breite Straße 35, Berlin-Bezirk Spandau"
ChIJqfUkIEdWqEcR3OqCIAuxnBs,Charlottenburg_North_6_2,Pho & More Restaurant Berlin,52.5376623,13.2020996,4.7,meal_takeaway,"Jüdenstraße 17, Berlin"
ChIJY286B0RWqEcRnBVN8GF_9B4,Charlottenburg_North_6_2,Chinese Restaurant Macao,52.5383379,13.2072473,4.4,restaurant,"Breite Straße 37, Berlin-Bezirk Spandau"
ChIJ_2Ot3kZWqEcRq8lJba8th9U,Charlottenburg_North_6_2,Prima Luna,52.5378811,13.2030079,4.0,restaurant,"Moritzstraße 3, Berlin-Bezirk Spandau"
ChIJV4SgUABXqEcR2ky8o_enR1w,Charlottenburg_North_6_2,Javi,52.5371544,13.2048152,,restaurant,"Altstadt, Berlin-Spandau"
ChIJQwiFfd1XqEcRTL_EFPWyiVg,Charlottenburg_North_6_2,CityChicken – The Original since 1996,52.5374118,13.2044885,4.8,restaurant,"Markt 12, Berlin"
ChIJfaQNe1pXqEcRujAYAREJIXA,Charlottenburg_North_6_2,"Pizzeria Roma Spandau - Pizza, Pasta, Salat und Florida Eis",52.5365165,13.2046109,4.8,meal_delivery,"Breite Straße 58, Berlin"
ChIJaWeZePhXqEcRGLuH2WRjmLE,Charlottenburg_North_6_2,FANCY,52.53794600000001,13.2051504,4.3,meal_takeaway,"Reformationsplatz 3, Berlin"
ChIJy5i6qUZWqEcRz8kQ_4YtDdM,Charlottenburg_North_6_2,ISOLA VERDE,52.5381046,13.2065624,4.4,restaurant,"Breite Straße 46, Berlin"
ChIJRZCzjkZWqEcRIt3qONN_xyQ,Charlottenburg_North_6_2,BACK-FACTORY,52.536302,13.2043243,4.0,bakery,"Breite Straße 59, Berlin"
ChIJSTdi7UZWqEcRpLnDWPG2quQ,Charlottenburg_North_6_2,Zad Imbiss,52.5368202,13.2038359,4.9,restaurant,"Marktstraße 2, Berlin-Bezirk Spandau"
ChIJ2YMMHwBXqEcRFCxwXYBlSww,Charlottenburg_North_6_2,Burger Room,52.53838640000001,13.2066542,4.9,restaurant,"Havelstraße 21, Berlin"
ChIJyQu9tSNXqEcRB6iUmwbW6qk,Charlottenburg_North_6_2,Restaurant Indian City,52.5357966,13.2049013,4.2,restaurant,"Charlottenstraße 27, Berlin"
ChIJayeGyfpXqEcRMWKtNwSoFwc,Charlottenburg_North_6_2,InPiazza Café,52.5385273,13.2059865,4.8,cafe,"Reformationsplatz 9, Berlin"
ChIJoXSCIytXqEcRS4hKVZN4kXI,Charlottenburg_North_6_2,Junge Die Bäckerei.,52.5379484,13.2040329,4.4,bakery,"Carl-Schurz-Straße 43, Berlin-Bezirk Spandau"
ChIJ7Sbx-cNXqEcRkDPOeOsVs_c,Charlottenburg_North_6_2,Persisches Restaurant Shahrzad,52.5386227,13.206525,4.1,restaurant,"Havelstraße 4, Berlin"
ChIJr3W570ZWqEcRNcse5DHVHFU,Charlottenburg_North_6_2,Mangal 24,52.5369974,13.2032325,4.4,restaurant,"Carl-Schurz-Straße 30, Berlin-Bezirk Spandau"
ChIJVYXyAdJXqEcRdfOYpyyAk_s,Charlottenburg_North_6_2,JaVi 92 Restaurant,52.53873180000001,13.2059994,4.7,restaurant,"Havelstraße 17A, Berlin"
ChIJV2qhwkZWqEcRFnPLZEjmdGk,Charlottenburg_North_6_2,Yummy - Sushi & Finest Asian Küche,52.537609,13.2033098,4.7,restaurant,"Moritzstraße 24, Berlin-Bezirk Spandau"
ChIJN6wfC_BXqEcRp_2vK_eqvn4,Charlottenburg_North_6_2,Namaste Buddha Restaurant,52.53831839999999,13.2039016,4.8,restaurant,"Ritterstraße 2, Berlin"
ChIJtS9YRElXqEcRnHv0RIeSXwA,Charlottenburg_North_6_2,Bi' Mola,52.53735989999999,13.2030645,4.4,restaurant,"Carl-Schurz-Straße 35, Berlin-Bezirk Spandau"
ChIJi-SeMQBXqEcR41xFHzU1ppE,Charlottenburg_North_6_2,Fisch Frank's Brötchen,52.5378674,13.2032856,4.6,restaurant,"Moritzstraße 2, Berlin"
ChIJ-fVb3EZWqEcRFHJCqIs6DUY,Charlottenburg_North_6_2,Ye-Mc,52.53781439999999,13.203186,4.1,restaurant,"Moritzstraße 2, Berlin-Bezirk Spandau"
ChIJbzSwBcJXqEcRXhztX-CLnNI,Charlottenburg_North_6_2,Myanvi Restaurant,52.53871849999999,13.2045728,4.4,restaurant,"Carl-Schurz-Straße 53, Berlin"
ChIJR0UHNUFWqEcRe8cImElzcgg,Charlottenburg_North_6_2,Süd Bistro,52.5388502,13.2049095,4.4,meal_takeaway,"Carl-Schurz-Straße 55, Berlin-Bezirk Spandau"
ChIJgcUHxq1XqEcRQavpixeJxGA,Charlottenburg_North_6_2,"Hasan Restaurant ""Lezzetin en samimi hali""",52.5377495,13.2029888,4.7,restaurant,"Moritzstraße 23, Berlin"
ChIJnRIFA0dWqEcR1K2x-6uqhqM,Charlottenburg_North_6_2,Café Lutetia,52.5369841,13.2018577,4.1,cafe,"Jüdenstraße 10, Berlin-Bezirk Spandau"
ChIJf_5U34BXqEcRguDWihFNZTE,Charlottenburg_North_6_2,Waffle Brothers,52.53914690000001,13.2057528,4.4,cafe,"Havelstraße 14, Berlin"
ChIJLdR5p-dXqEcRTgcQNAEn5DA,Charlottenburg_North_6_2,Hier Damas (هنا دمشق),52.5380473,13.2025845,4.5,restaurant,"Moritzstraße 5, Berlin"
ChIJierfNw1XqEcRuYznm3mjuws,Charlottenburg_North_6_2,Patatas Mexican Restaurant Spandau,52.53776989999999,13.2023638,4.6,bar,"Jüdenstraße 17, Berlin-Bezirk Spandau"
ChIJ4ULgR0FWqEcRQtbkPa5qVY4,Charlottenburg_North_6_2,Diren Kebap,52.5393892,13.205244,3.8,restaurant,"Carl-Schurz-Straße 61, Berlin"
ChIJH1rIeKZXqEcRJH3Ph47HTXk,Charlottenburg_North_6_2,Schnitzery Spandau,52.5385281,13.2027179,4.9,restaurant,"Ritterstraße 9, Berlin"
ChIJRan4I0dWqEcRrf3n1EXkRfg,Charlottenburg_North_6_2,Falafel Al Safe,52.5380469,13.2020891,4.5,meal_takeaway,"Moritzstraße 18, Berlin"
ChIJSYMOPl9WqEcR1dcUa5V_CGk,Charlottenburg_North_6_3,Shell,52.536639,13.221841,3.7,gas_station,"Am Juliusturm 33, Berlin-Bezirk Spandau"
ChIJ-2E2hFxWqEcRyWsI9MFFQlM,Charlottenburg_North_6_3,All Seasons,52.53778639999999,13.2163107,4.3,restaurant,"Am Juliusturm 53, Berlin-Bezirk Spandau"
ChIJT1QOeVxWqEcRNCIpDp9PhgI,Charlottenburg_North_6_3,McDonald's,52.5375264,13.2188873,3.3,restaurant,"Am Juliusturm 40-46, Berlin-Bezirk Spandau"
ChIJLT23B11WqEcR-jDBhy1QyLg,Charlottenburg_North_6_3,Motorworld Berlin,52.53973149999999,13.2190248,4.2,car_dealer,"Zitadellenweg 30-70, Berlin"
ChIJoR-4gphXqEcR8DQoAehnr4M,Charlottenburg_North_6_3,Sushi Circle,52.5377993,13.2190073,3.7,meal_takeaway,"Am Juliusturm 40-46, Berlin"
ChIJP90z89hXqEcRYWQQlg-wUH0,Charlottenburg_North_6_4,H13 - Haselhorst13,52.536171,13.2290434,4.3,cafe,"Am Juliusturm 13, Berlin"
ChIJS2EMZl9WqEcRpHBQ69l5mT8,Charlottenburg_North_6_4,Berlin Imbiss,52.537732,13.228651,,restaurant,"Am Juliusturm 13, Berlin-Bezirk Spandau"
ChIJX5nE12BXqEcR870BHGtf_TA,Charlottenburg_North_6_4,Schlemmer-Paradies - Peter Anders,52.53766419999999,13.2285753,4.0,meal_takeaway,"Am Juliusturm 15, Berlin"
ChIJOXyiAQBXqEcRzjGFpMRsMXQ,Charlottenburg_North_6_5,Dai An,52.5384,13.248181,5.0,restaurant,"Paulsternstraße 4, Berlin"
ChIJD25xc4NXqEcRCyK85wiA9eM,Charlottenburg_North_6_5,San San Sushi & Asian Küche,52.5384,13.248181,4.8,restaurant,"Paulsternstraße 4, Berlin"
ChIJCVbkpbVWqEcReVL5ajfF7VA,Charlottenburg_North_6_7,Call a Pizza Berlin Siemensstadt,52.53682669999999,13.274755,4.5,meal_delivery,"Popitzweg 17, Berlin"
ChIJC30AsEFWqEcRuqBudG9X6Ks,Charlottenburg_North_6_7,CONTI GRİLLHAUS RESTAURANT,52.53635389999999,13.2708022,4.2,restaurant,"Nonnendammallee 86, Berlin"
ChIJuQWMqMBWqEcRZqH7dZOTnnE,Charlottenburg_North_6_7,DAILY PIZZA,52.536934,13.26676339999999,4.5,restaurant,"Nonnendammallee 97, Berlin"
ChIJs0q9g7hWqEcRPKuS8sBudRw,Charlottenburg_North_6_7,La Pausa,52.53687,13.2708976,4.4,restaurant,"Nonnendammallee 90, Berlin"
ChIJU_LBOqxXqEcRWPjzc_ujt-U,Charlottenburg_North_6_7,Food Nations GmbH,52.5368707,13.2709183,,restaurant,"Siemensdamm 45-46, Berlin"
ChIJl2KCfiNXqEcRWbO6Q1-vPxw,Charlottenburg_North_6_7,Özgür Market,52.5369713,13.2711302,4.3,grocery_or_supermarket,"Nonnendammallee 89, Berlin-Bezirk Spandau"
ChIJnSLMXABXqEcRyXZSamOwhLM,Charlottenburg_North_6_7,Butchers Burger,52.53689079999999,13.2711142,4.4,restaurant,"Nonnendammallee 89, Berlin"
ChIJJYweIZpXqEcRtOtspVWSrQc,Charlottenburg_North_6_7,Köşgeroglu Lahmacun & Pide Haus,52.5363989,13.2703342,3.9,meal_takeaway,"Nonnendammallee 86, Berlin"
ChIJKwC7UjNXqEcRBjODg_LZVEg,Charlottenburg_North_6_7,Köşgeroğlu Frühstückcafe und Restaurant,52.5363806,13.2704803,4.5,restaurant,"Nonnendammallee 86, Berlin"
ChIJLTa_frhWqEcRCXYz7yutXHw,Charlottenburg_North_6_7,Imbiss,52.5368628,13.2717273,4.2,meal_takeaway,"13629, Jungfernheideweg, Berlin"
ChIJBWFxYtJXqEcRnnEX6pdV2rQ,Charlottenburg_North_6_7,LIBA Pizzeria & Cafe,52.53696069999999,13.268938,4.9,meal_delivery,"Nonnendammallee 93B, Berlin"
ChIJRweFhsdWqEcRQtiFZz-U998,Charlottenburg_North_6_7,Restaurant M&D Grillhaus,52.5363029,13.2716447,3.9,restaurant,"Reisstraße 21, Berlin-Bezirk Spandau"
ChIJOeOi6WhXqEcRvxcGXNNQ-xQ,Charlottenburg_North_6_7,Swadishta,52.5371067,13.2685874,4.8,restaurant,"Quellweg 23, Berlin"
ChIJNSgEXMdWqEcRcLeaR974juc,Charlottenburg_North_6_7,Restaurant Adria-Grill,52.53640129999999,13.2688963,4.7,restaurant,"Nonnendammallee 84A, Berlin-Bezirk Spandau"
ChIJOX1JSLVXqEcRZ6rOmEyfMZU,Charlottenburg_North_6_7,Pizzeria Alte Forno,52.5363608,13.2720028,3.9,restaurant,"Siemensdamm 47, Berlin-Bezirk Spandau"
ChIJC4RABsBXqEcRZ6jD7o1UOkM,Charlottenburg_North_6_7,Burger City Nonnendammallee,52.5363923,13.2686774,4.4,restaurant,"Nonnendammallee 84, Berlin"
ChIJaULGS-FXqEcRo0VSt3YwLP8,Charlottenburg_North_6_7,Hühnerwald,52.5363988,13.2685165,4.6,restaurant,"Nonnendammallee 84, Berlin"
ChIJTVA-ZQBXqEcRTxXCvCvaAAU,Charlottenburg_North_6_7,ZEBA BEEF KEBAB,52.53689079999999,13.2681769,4.7,restaurant,"Nonnendammallee 94, Berlin"
ChIJncNeiMdWqEcRGJNBxr3B2Og,Charlottenburg_North_6_7,Thien Thai Bistro,52.5362941,13.272357,4.3,restaurant,"Siemensdamm 48, Berlin-Bezirk Spandau"
ChIJlxamUcdWqEcR8gVikBarJEE,Charlottenburg_North_6_7,Berliner Rouladenhaus,52.5364205,13.2679512,4.3,restaurant,"Nonnendammallee 83, Berlin-Bezirk Spandau"
ChIJUZvzocdWqEcRD_q4X3SFfH0,Charlottenburg_North_6_7,Il Ducato,52.5352305,13.2710851,4.6,restaurant,"Wernerwerkdamm 27, Berlin"
ChIJ_eFnYgZXqEcRSlRvz5ScTpc,Charlottenburg_North_6_7,Wraps 4 friends,52.5366715,13.2734478,4.9,meal_takeaway,"Siemensdamm 45-46, Berlin"
ChIJieSC88dWqEcRXiNmC3VfxQI,Charlottenburg_North_6_7,WEINLOUNGE,52.5358937,13.2729037,4.1,restaurant,"Ohmstraße 4-6, Berlin"
ChIJr2d_27hWqEcRxA1EQOt5c1w,Charlottenburg_North_6_7,Pizzeria al Ponte,52.5389962,13.2701317,4.7,restaurant,"Quellweg 35a, Berlin-Bezirk Spandau"
ChIJPUW-oMBWqEcRugAZ3MIwt_s,Charlottenburg_North_6_7,Royal Asia,52.53713489999999,13.2663893,4.2,restaurant,"Wattstraße 12, Berlin-Bezirk Spandau"
ChIJVQJ_Xb9WqEcRC8DL1L2dg1c,Charlottenburg_North_6_7,Bitburger Siemensstadt Restaurant,52.5377375,13.2661666,,restaurant,"Jugendweg 4, Berlin-Bezirk Spandau"
ChIJ6ULtU7ZWqEcRweO3ZLIv7eQ,Charlottenburg_North_6_8,Göbel Bistro,52.537957,13.2801366,3.8,restaurant,"Toeplerstraße 31, Berlin-Bezirk Charlottenburg-Wilmersdorf"
ChIJR7wgobhXqEcRllC7Pj_uhiw,Charlottenburg_North_6_8,Stari Most,52.5372601,13.2858697,4.7,restaurant,"Halemweg 21, Berlin-Bezirk Charlottenburg-Wilmersdorf"
ChIJJ5FitLVWqEcRV51NhAxTVWo,Charlottenburg_North_6_8,Halem Grill,52.5374232,13.2860205,4.1,restaurant,"Halemweg 21, Berlin-Bezirk Charlottenburg-Wilmersdorf"
ChIJtc7kaABRqEcRw_0grZPldAo,Charlottenburg_North_6_9,Delle venezia,52.53593919999999,13.3001076,4.4,restaurant,"Reichweindamm 5, Berlin-Bezirk Charlottenburg-Wilmersdorf"
ChIJidKp_GtRqEcRNqPHSYTV1AU,Charlottenburg_North_6_11,Shell,52.535574,13.324845,2.7,gas_station,"Beusselstraße 44, Berlin"
ChIJcy2T-JJRqEcR4HOmLLYL7h8,Charlottenburg_North_6_11,Sanbey GmbH,52.5359934,13.322905,4.0,restaurant,"Befindet/n sich in: Berliner Großmarkt, Beusselstraße 44/N-Q, Berlin"
ChIJNwQJMrhRqEcRL__lEZI2adI,Charlottenburg_North_6_11,Mavi Bistro,52.53487140000001,13.3205809,5.0,restaurant,"Beusselstraße 44 n-q, Berlin"
ChIJLeHqc0FWqEcRpbsmTg4T_cI,Charlottenburg_North_7_2,Brauhaus Spandau,52.54071829999999,13.2066083,4.3,liquor_store,"Neuendorfer Straße 1, Berlin-Bezirk Spandau"
ChIJQe54XkBWqEcRBYat3l3JtFE,Charlottenburg_North_7_2,Pizza Max Berlin Spandau Nord,52.54204679999999,13.2026569,3.1,meal_takeaway,"Achenbachstraße 11, Berlin-Bezirk Spandau"
ChIJPVjfWkBWqEcRuJh9hoxUZrg,Charlottenburg_North_7_2,Die Wampe,52.542245,13.2034277,4.7,bar,"Bismarckstraße 60, Berlin-Bezirk Spandau"
ChIJy7B-NEhWqEcRXawaU_aWTi0,Charlottenburg_North_7_2,Beyzade,52.5399144,13.2058366,4.7,meal_takeaway,"Hoher Steinweg 7, Berlin"
ChIJ89PLYp4hZUERWCf0S3TUcb4,Charlottenburg_North_7_2,Omonia Treff,52.54446069999999,13.204281,4.7,restaurant,"Schönwalder Straße 111, Berlin"
ChIJm5dVavZXqEcRUkDnQ39EvMM,Charlottenburg_North_7_2,Baran Döner Station,52.54203429999999,13.2055888,4.3,restaurant,"Neuendorfer Straße 105, Berlin-Bezirk Spandau"
ChIJcX3JFptXqEcR9llOxYaKNHo,Charlottenburg_North_7_2,EZ Chicken,52.5425058,13.2057802,4.3,restaurant,"Neuendorfer Straße 101, Berlin"
ChIJ10vnJkBWqEcRIzvlVUgGg9Q,Charlottenburg_North_7_2,Ristorante Pizzeria Pescara,52.544273,13.203999,4.7,restaurant,"Falkenhagener Straße 1, Berlin-Bezirk Spandau"
ChIJT2odOf9XqEcRAgXt0NOTCdg,Charlottenburg_North_7_2,Teloneio Greek Taverna,52.5399239,13.2074431,4.8,restaurant,"Möllentordamm 1, Berlin-Bezirk Spandau"
ChIJ3eUvnYJXqEcRVk0bMvQL1u8,Charlottenburg_North_7_2,Sabah el Kheir,52.54462179999999,13.2053119,5.0,restaurant,"Müllerstraße 95, Berlin"
ChIJB4RuQfVWqEcR4Y7VyuS5lSs,Charlottenburg_North_7_4,RODI Döner & Pizza,52.5399584,13.2315959,4.2,meal_takeaway,"Daumstraße 3, Berlin-Bezirk Spandau"
ChIJlZlASoxWqEcRDh_up1z1sBI,Charlottenburg_North_7_5,REWE To Go bei Aral,52.5436924,13.2436376,3.5,supermarket,"Aral, Gartenfelder Straße 71, Berlin-Bezirk Spandau"
ChIJ8dHmZABXqEcR3eve9pXC_Fc,Charlottenburg_North_7_5,FANCY Burger Berlin,52.5430898,13.2412227,5.0,restaurant,"Gartenfelder Straße 83, Berlin"
ChIJ3XpQOchXqEcR0w5NDHifgf8,Charlottenburg_North_7_5,SUSHI CITY - SPANDAU,52.5430898,13.2412227,4.7,restaurant,"Gartenfelder Straße 83, Berlin"
ChIJ2WlpQTFXqEcRwGnCYGywwVg,Charlottenburg_North_7_5,TUNC KEBAP,52.5430356,13.2410699,4.2,restaurant,"Gartenfelder Straße 85, Berlin"
ChIJa6gQY4xWqEcR1OdKvN0ZWvA,Charlottenburg_North_7_5,Khuong Vu Hong Imbiss,52.54296829999999,13.2406672,4.1,meal_takeaway,"Gartenfelder Straße 87, Berlin-Bezirk Spandau"
ChIJhbfRYoxWqEcRbZfsbXBDH9A,Charlottenburg_North_7_5,Phönix Asia Food,52.54305009999999,13.2407168,4.1,restaurant,"Gartenfelder Straße 87, Berlin-Bezirk Spandau"
ChIJF7Yy4LBWqEcRglnoQUvd9a4,Charlottenburg_North_7_8,Kulturbiergarten Jungfernheide,52.542427,13.281615,4.3,bar,"gegenüber Heckerdamm 273, 13627, Berlin"
ChIJh6iK2mRRqEcRSTT-mcRfdPo,Charlottenburg_North_7_12,Rudolf's Bistro im Gästehaus,52.5429644,13.3388245,4.2,restaurant,"Seestraße 4, Berlin"
ChIJW_UYahZWqEcRGba_BlmyPkM,Charlottenburg_North_8_1,SDG Mladost berlin,52.5466299,13.1925907,4.9,restaurant,"Askanierring 155-156, Berlin-Bezirk Spandau"
ChIJbZFpHPJXqEcR13UoIc2yzPA,Charlottenburg_North_8_1,Mirva Restaurant & Café,52.5461094,13.190856,4.6,restaurant,"Falkenseer Chaussee 278, Berlin"
ChIJ5Qwc0RdWqEcRezvNJBYDdFQ,Charlottenburg_North_8_1,Grillhaus Sultan Sofrasi,52.5462516,13.1904424,4.1,restaurant,"Falkenseer Chaussee 277, Berlin-Bezirk Spandau"
ChIJ03QbzhVWqEcRvkh4cn-rj-g,Charlottenburg_North_8_1,Il Vagabondo,52.5474536,13.1967258,4.4,restaurant,"Falkenhagener Straße 38, Berlin-Bezirk Spandau"
ChIJZZjXFGtWqEcRlbzhLB9KEME,Charlottenburg_North_8_2,Gülten Erdoğan Yeminli Tercüman,52.5481175,13.2057958,,restaurant,"Lutherstraße, Berlin-Bezirk Spandau"
ChIJ6UynzWpWqEcR1r5PHrfkdgo,Charlottenburg_North_8_2,Mehek,52.546321,13.202995,4.5,restaurant,"Schönwalder Straße 21, Berlin-Bezirk Spandau"
ChIJ6ySsYgBXqEcR7Uy30HphXvQ,Charlottenburg_North_8_2,Bro’s Pizzeria by The Fresh Flavours,52.5484218,13.208418,3.5,restaurant,"Kurstraße 22, Berlin"
ChIJ5fK10RRWqEcRHNd5a0t2lT4,Charlottenburg_North_8_2,Ooh-ase /Michis Ooh-ase,52.5477279,13.2027321,4.2,night_club,"Neumeisterstraße 5, Berlin"
ChIJy7rybmpWqEcRf-rHQ7xZ7J0,Charlottenburg_North_8_2,Pizzeria La Familia,52.5449573,13.2073735,4.4,restaurant,"Kirchhofstraße 1, Berlin-Bezirk Spandau"
ChIJJ8zMmmtWqEcR3j7nTNUip1c,Charlottenburg_North_8_2,Haci Mevlana,52.5485199,13.2084826,4.7,restaurant,"Kurstraße 22, Berlin-Bezirk Spandau"
ChIJlVcZIRVWqEcRsdtxkUgxezE,Charlottenburg_North_8_2,Kümes Chickenhouse Spandau,52.5471,13.2015607,4.0,meal_takeaway,"Schönwalder Straße 94, Berlin"
ChIJNzBrOqlXqEcRlR9dWek2O_M,Charlottenburg_North_8_2,Kani grill,52.544694,13.2077652,4.3,restaurant,"Körnerstraße 11, Berlin"
ChIJ67TzhjFXqEcRbNY-vgEyHjw,Charlottenburg_North_8_3,Biergarten Eiswerder,52.5471427,13.2196865,,bar,"Eiswerderstraße, Berlin"
ChIJ3dqz7pZWqEcR3UWszmMhlmE,Charlottenburg_North_8_6,KresoS Gastro GmbH,52.54524850000001,13.2587348,4.3,restaurant,"Buolstraße 14, Berlin-Bezirk Spandau"
ChIJIfclGh1XqEcRny7qVLP0Oj4,Charlottenburg_North_8_9,Biergarten Strandbar Berlista,52.5482844,13.2950372,4.7,bar,"Saatwinkler Damm 80, Berlin"
ChIJF_aepFBRqEcR9K3khjZb2BI,Charlottenburg_North_8_10,Burger King Berlin,52.54735600000001,13.310526,3.8,restaurant,"Saatwinkler Damm 61-64, Berlin"
ChIJlU_JOlRRqEcRznD6tBBf3OE,Charlottenburg_North_8_10,Mutti's Küche,52.54479649999999,13.3113886,4.5,restaurant,"Friedrich-Olbricht-Damm 65, Berlin"
ChIJlUdVMoJXqEcRQszY3-qcXrM,Charlottenburg_South_1_1,Lindwerder,52.467374,13.1919632,4.3,restaurant,"Havelchaussee 43, Berlin"
ChIJNXNYn_hZqEcRPc_RbKRJ7hI,Charlottenburg_South_1_6,Paulsborn castle at the forest lake Grunewald,52.46644999999999,13.25603,4.2,bar,"Hüttenweg 90, Berlin-Bezirk Steglitz-Zehlendorf"
ChIJAwqcSmtbqEcRbUSzLQNccfQ,Charlottenburg_South_1_6,Imbissbereich Grunewaldsee,52.4663879,13.2564735,3.4,restaurant,"Hüttenweg 90, Berlin-Bezirk Steglitz-Zehlendorf"
ChIJNXNYn_hZqEcRnSMy7Cv8Pts,Charlottenburg_South_1_6,walks + talks GmbH,52.46644999999999,13.25603,4.5,restaurant,"Hüttenweg 90, Berlin-Bezirk Steglitz-Zehlendorf"
ChIJAWZk4ntZqEcR7fvumRxfxIY,Charlottenburg_South_1_6,Spoodi Grunewald,52.4663838,13.2561567,2.4,restaurant,"Hüttenweg 90, Berlin-Bezirk Steglitz-Zehlendorf"
ChIJo6xxHvZZqEcRhVH2OZY5czg,Charlottenburg_South_1_6,Locanda 12 Apostoli,52.4663889,13.2561111,4.1,restaurant,"Hüttenweg 90, Berlin-Bezirk Steglitz-Zehlendorf"
ChIJgRVrbYJQqEcRJ30cNUe_adc,Charlottenburg_South_1_10,Ristorante Casa Michelangelo,52.4679411,13.3090943,4.1,restaurant,"Breitenbachplatz 4, Berlin-Bezirk Charlottenburg-Wilmersdorf"
ChIJ9xMvg3haqEcRI7gQM2VluWw,Charlottenburg_South_1_10,Santa Café,52.4670218,13.3076821,4.1,cafe,"Breitenbachplatz 12, Berlin-Bezirk Steglitz-Zehlendorf"
ChIJl5jZx65RqEcRERqgmE7FmlE,Charlottenburg_South_1_10,REWE To Go bei Aral,52.4683794,13.3112415,3.0,supermarket,"Aral, Südwestkorso 36A, Berlin"
ChIJjaiPcUxbqEcRhMDODwaa9NQ,Charlottenburg_South_1_10,Döner Breitenbachplatz,52.4670698,13.3091868,4.6,meal_takeaway,"Breitenbachplatz 2, Berlin"
ChIJQ6CXk-1bqEcRhLVS5Q2raq8,Charlottenburg_South_1_10,Nußbaumerin Heuriger & Feines aus Österreich,52.4670971,13.3077714,4.7,bar,"Breitenbachplatz 12, Berlin-Bezirk Steglitz-Zehlendorf"
ChIJ348nsXhaqEcRd06OlyZhm88,Charlottenburg_South_1_10,Brentano,52.46611110000001,13.3094444,4.6,restaurant,"Brentanostraße 7, Berlin-Bezirk Steglitz-Zehlendorf"
ChIJ4fCkAn5QqEcR6w-BIM_fPjw,Charlottenburg_South_1_11,Nikko Sushi,52.4706376,13.3203086,4.5,restaurant,"Laubacher Straße 11, Berlin-Bezirk Tempelhof-Schöneberg"
ChIJRcIhs39QqEcRatwrY5CyVOI,Charlottenburg_South_1_11,Café Frau Maus,52.46832559999999,13.3218366,4.6,restaurant,"Rheingaustraße 4, Berlin-Bezirk Tempelhof-Schöneberg"
ChIJpYffI35QqEcR-b5s-ZtoPWw,Charlottenburg_South_1_11,Fränky,52.4697445,13.320255,4.5,bar,"Laubacher Straße 10, Berlin-Bezirk Tempelhof-Schöneberg"
ChIJQzsVl35QqEcRFMmy4z-2qQ8,Charlottenburg_South_1_11,I Moirtifami,52.4699982,13.3255227,4.7,restaurant,"Goßlerstraße 10, Berlin-Bezirk Tempelhof-Schöneberg"
ChIJz1Upsh5RqEcRbvDxwFpy20M,Charlottenburg_South_1_11,Nett - Vietnamesisches Restaurant,52.4672012,13.3216638,4.8,restaurant,"Rheingaustraße 1, Berlin"
ChIJv8vdQVRRqEcRQVju7Y0vg3g,Charlottenburg_South_1_11,Himalayan kitchen,52.4681212,13.3248802,5.0,restaurant,"Odenwaldstraße 7, Berlin"
ChIJh046TYJRqEcRg2B-cWqT-Qg,Charlottenburg_South_1_11,doppelt Käse,52.47070689999999,13.3202819,4.7,restaurant,"Laubacher Straße 11, Berlin-Bezirk Tempelhof-Schöneberg"
ChIJq63nkNxRqEcRc6zKCHRKodY,Charlottenburg_South_1_11,FANKoch,52.4666904,13.3198729,4.8,restaurant,"Maßmannstraße 7, Berlin"
ChIJIwbFmAxRqEcRMQUw2IP5wic,Charlottenburg_South_1_11,"Phan, Manh Thanh",52.4666904,13.3198729,5.0,restaurant,"Maßmannstraße 7, Berlin"
ChIJwW8cHghRqEcRzFJ194smtbc,Charlottenburg_South_1_11,Il Giardino,52.466756,13.3251213,4.7,restaurant,"Hackerstraße 3, Berlin"
ChIJTVPljXlQqEcRQeUnnXXgHxI,Charlottenburg_South_1_12,TERRA VERDE Landkost aus Sizilien,52.4692812,13.332619,4.8,grocery_or_supermarket,"Rheinstraße 18, Berlin-Bezirk Tempelhof-Schöneberg"
ChIJjVeGHHpQqEcRdV0NbXL0Udo,Charlottenburg_South_1_12,Statement The Kitchen,52.4701838,13.3342745,4.8,bar,"Rheinstraße 60, Berlin"
ChIJL7yZUnhQqEcRaJcKZVJXCi0,Charlottenburg_South_1_12,Asia Time,52.4675802,13.3314779,4.6,restaurant,"Rheinstraße 49, Berlin-Bezirk Tempelhof-Schöneberg"
ChIJDdXjrnlQqEcR9uyA1_eegJw,Charlottenburg_South_1_12,Pizzeria Atila,52.46786869999999,13.33108,4.8,restaurant,"Rheinstraße 26, Berlin-Bezirk Tempelhof-Schöneberg"
ChIJp7IlEHpQqEcRA1E0QrREKYc,Charlottenburg_South_1_12,Ristorante Pizzeria Barolo Berlin,52.4705509,13.3346287,4.1,meal_takeaway,"Rheinstraße 62, Berlin-Bezirk Tempelhof-Schöneberg"
ChIJ8aEK73lQqEcRW5H25HfTrtM,Charlottenburg_South_1_12,Restaurant Chaplin,52.4689627,13.3336553,4.6,restaurant,"Moselstraße 1, Berlin-Bezirk Tempelhof-Schöneberg"
ChIJARqHlXlQqEcRAKPurdjvxT8,Charlottenburg_South_1_12,Brigantino,52.46822450000001,13.3321194,4.7,restaurant,"Rheinstraße 53, Berlin-Bezirk Tempelhof-Schöneberg"
ChIJD2FE1hBRqEcRt55RsNTOMbc,Charlottenburg_South_1_12,Mulkiano Pizza Pasta,52.4693982,13.3327314,4.5,meal_delivery,"Rheinstraße 17, Berlin"
ChIJreRxEQBRqEcRjNkpQcHxlSU,Charlottenburg_South_1_12,Chicken Paniert,52.469356,13.3326092,4.3,restaurant,"Rheinstraße 18, Berlin"
ChIJV0DBRqhRqEcR6yek-CG0ll8,Charlottenburg_South_1_12,Balli Burger,52.4692105,13.3325019,3.8,restaurant,"Schmiljanstraße, Berlin"
ChIJXTFeBpNRqEcRZjc56jrHRQQ,Charlottenburg_South_1_12,Sushi Bro‘s,52.46927609999999,13.3324861,4.9,restaurant,"Rheinstraße 18, Berlin"
ChIJCx8qsZZRqEcRc5lJsLPN2uw,Charlottenburg_South_1_12,D'Brunch | Breakfast & Lunch,52.4702987,13.3344243,4.5,restaurant,"Rheinstraße 61, Berlin"
ChIJmS8qNv1RqEcRi0DXH55gGcY,Charlottenburg_South_1_12,Loco Chicken Steglitz,52.47029169999999,13.3356378,4.4,meal_takeaway,"Dickhardtstraße 55, Berlin"
ChIJN3WWAgBRqEcR0J2TsfrC8FA,Charlottenburg_South_1_12,Barlys,52.4688162,13.3321248,4.8,restaurant,"Rheinstraße 20, Berlin"
ChIJveikl3lQqEcRGyNsgLfXGbo,Charlottenburg_South_1_12,Balli Döner,52.4687832,13.3321049,3.8,meal_takeaway,"Rheinstraße 20, Berlin-Bezirk Tempelhof-Schöneberg"
ChIJWxJK41tRqEcRnZNAfkLvFpk,Charlottenburg_South_1_12,Khao Hom,52.47017140000001,13.3334254,4.6,restaurant,"Rheinstraße 11, Berlin"
ChIJm0qYkHlQqEcRn4hLY5r3naA,Charlottenburg_South_1_12,Huong Giang,52.4690255,13.332031,4.2,restaurant,"Schmiljanstraße 16, Berlin-Bezirk Tempelhof-Schöneberg"
ChIJ_TIVTgBRqEcRxjTZeofTW-A,Charlottenburg_South_1_12,ETHNO YURT | Zentralasiatische Küche,52.4704614,13.3345699,4.7,restaurant,"Rheinstraße 62, Berlin-Bezirk Tempelhof-Schöneberg"
ChIJkTiBo3lQqEcR3zsnhTLD1mw,Charlottenburg_South_1_12,Domino's,52.4682924,13.3314426,3.0,restaurant,"Rheinstraße 23, Berlin"
ChIJNcXTs3lQqEcRD0is9pwAqJg,Charlottenburg_South_1_12,Lac Viet,52.46765860000001,13.3315991,4.7,restaurant,"Rheinstraße 50, Berlin-Bezirk Tempelhof-Schöneberg"
ChIJMQb4bf1RqEcR74xdASo5ED4,Charlottenburg_South_1_12,Pittelli`s - Taste Italy,52.46731279999999,13.3314467,5.0,restaurant,"Dickhardtstraße 27, Berlin"
ChIJO4GPTwBRqEcRHL2oaezEsJc,Charlottenburg_South_1_12,Carlos Lopez,52.46731279999999,13.3314467,,restaurant,"Dickhardtstraße 27, Berlin-Bezirk Tempelhof-Schöneberg"
ChIJ8zclMLFRqEcRHbWfIvRp-vc,Charlottenburg_South_1_12,Levi's KITCHEN,52.4711337,13.3356891,5.0,restaurant,"Dickhardtstraße 60, Berlin"
ChIJg3zpk2RRqEcRAiQ6QylNQoI,Charlottenburg_South_2_7,Hagn‘s Hockeylounge,52.4733937,13.2730189,4.6,restaurant,"Eichhörnchensteig 1, Berlin"
ChIJL4XrXmlSqEcRdTwVRfo_TRs,Charlottenburg_South_2_9,Dschunke,52.4747123,13.2935765,3.9,restaurant,"Breite Straße 15, Berlin-Bezirk Charlottenburg-Wilmersdorf"
ChIJA7WFGpxQqEcRg5ATrKKBSqg,Charlottenburg_South_2_9,Marende,52.4729099,13.2990582,4.5,restaurant,"Helgolandstraße 1, Berlin-Bezirk Charlottenburg-Wilmersdorf"
ChIJfV4fAJ9QqEcR-3_5BqR4yBU,Charlottenburg_South_2_9,Stachelbeere,52.4718081,13.2938879,4.4,bar,"Misdroyer Straße 35, Berlin-Bezirk Charlottenburg-Wilmersdorf"
ChIJIcS2bYNQqEcRxTz3x0ne3zY,Charlottenburg_South_2_10,Gaststätte Joel,52.4717592,13.3077545,4.1,bar,"Schlangenbader Straße 29, Berlin-Bezirk Charlottenburg-Wilmersdorf"
ChIJ0TgCaH1QqEcR-6piC-OSd-0,Charlottenburg_South_2_11,Mario,52.475082,13.323463,4.8,restaurant,"Südwestkorso 10, Berlin"
ChIJ_RTAUIdQqEcRVnBmetp1CK4,Charlottenburg_South_2_11,Pizzeria Cremina,52.4717382,13.3202828,3.9,restaurant,"Südwestkorso 60, Berlin-Bezirk Tempelhof-Schöneberg"
ChIJf87uf4dQqEcR1oyt_0xLOPw,Charlottenburg_South_2_11,Miteinander,52.4737412,13.3217647,4.5,restaurant,"Taunusstraße 11, Berlin-Bezirk Tempelhof-Schöneberg"
ChIJD6T4B31QqEcRQU1elX4X9FQ,Charlottenburg_South_2_11,Taunus Eck,52.4736345,13.3243917,4.6,bar,"Taunusstraße 7, Berlin-Bezirk Tempelhof-Schöneberg"
ChIJM_fQen1QqEcRyyk315JyrHc,Charlottenburg_South_2_11,Corso Toscana,52.4742572,13.322433,4.5,restaurant,"Südwestkorso 12, Berlin"
ChIJV0IdRYdQqEcR_r2SQzrC-MQ,Charlottenburg_South_2_11,CAFE Czerr,52.4723599,13.3199096,3.9,bakery,"Laubacher Straße 43, Berlin"
ChIJ89t3h31QqEcRXpGRPUGOmrQ,Charlottenburg_South_2_11,Achilles' Taverna,52.473283,13.321248,4.6,restaurant,"Südwestkorso 15, Berlin-Bezirk Tempelhof-Schöneberg"
ChIJK7PqS4dQqEcRkAUIhGmaB1s,Charlottenburg_South_2_11,Spinnrad,52.47178940000001,13.3192033,4.4,bar,"Wiesbadener Straße 16, Berlin-Bezirk Charlottenburg-Wilmersdorf"
ChIJuanxin1QqEcR7yQes5hcQwg,Charlottenburg_South_2_11,Pino,52.4727184,13.3218357,4.5,restaurant,"Rheingaustraße 14, Berlin"
ChIJ0Qq7iH1QqEcRtGcHnH32d3E,Charlottenburg_South_2_11,wild caffè,52.4730533,13.3218062,4.7,cafe,"Südwestkorso 63, Berlin-Bezirk Tempelhof-Schöneberg"
ChIJ136ea4dQqEcRw27UB0gMRv4,Charlottenburg_South_2_11,Quynh Anh,52.4729348,13.3198394,4.5,restaurant,"Laubacher Straße 42, Berlin-Bezirk Charlottenburg-Wilmersdorf"
ChIJncH59d5RqEcRiG1g7hx_lUY,Charlottenburg_South_2_11,Aperitivo Café,52.4718926,13.3237673,4.9,bar,"Stubenrauchstraße 57, Berlin"
ChIJGX2jLHxQqEcRIEDOdGeiOds,Charlottenburg_South_2_11,Como en Casa,52.4713795,13.3235874,4.6,restaurant,"Stubenrauchstraße 59, Berlin-Bezirk Tempelhof-Schöneberg"
ChIJVek-JQBRqEcRv4-ayjB2jag,Charlottenburg_South_2_11,Niki's Soul Cafe,52.4714993,13.3198105,4.7,restaurant,"Laubacher Straße 44, Berlin"
ChIJi91PfHpQqEcRX95OQqsBKRQ,Charlottenburg_South_2_12,Breslauer Platz Wochenmarkt,52.472333,13.335502,4.3,meal_takeaway,"Niedstraße 1, Berlin"
ChIJy1D6I3tQqEcRILBH-XHYGEQ,Charlottenburg_South_2_12,Weinbeisser,52.4742682,13.3329605,4.8,liquor_store,"Handjerystraße 90, Berlin-Bezirk Tempelhof-Schöneberg"
ChIJpbQ5nHBQqEcRvXN2-cHzGxQ,Charlottenburg_South_2_12,LuLa Deli & Grill,52.472277,13.3348769,4.4,restaurant,"Lauterstraße 14-15, Berlin-Bezirk Tempelhof-Schöneberg"
ChIJBSM9QXpQqEcRpbmlZCuxYFs,Charlottenburg_South_2_12,Cafe & Restaurant Sonnenschein,52.471327,13.333718,4.8,cafe,"Schmargendorfer Straße 33, Berlin-Bezirk Tempelhof-Schöneberg"
ChIJHaDZR3pQqEcRiKgSi4018_s,Charlottenburg_South_2_12,Glühwurm,52.4713759,13.3332888,4.4,restaurant,"Handjerystraße 77, Berlin-Bezirk Tempelhof-Schöneberg"
ChIJtQxIfHBQqEcR7sSyQe0us8U,Charlottenburg_South_2_12,Sweet Cocos,52.47275140000001,13.3371012,4.6,restaurant,"Hauptstraße 82, Berlin-Bezirk Tempelhof-Schöneberg"
ChIJ0WuwYXpQqEcRs-n98YpyZo8,Charlottenburg_South_2_12,LuLa am Markt,52.4721018,13.3350702,4.4,cafe,"Lauterstraße 14, Berlin-Bezirk Tempelhof-Schöneberg"
ChIJP2bufHpQqEcRzdiM6LMtvh8,Charlottenburg_South_2_12,63 Gemüse Kebap,52.4720734,13.3355412,3.6,restaurant,"Breslauer Platz 1, Berlin"
ChIJ9SVMYXpQqEcRN-LOxBKCIpU,Charlottenburg_South_2_12,Bäcker Wiedemann – Bäckerei Friedenau,52.4720053,13.3350728,4.1,bakery,"Lauterstraße 16, Berlin-Bezirk Tempelhof-Schöneberg"
ChIJiesRZHpQqEcReI5A4eHm8h4,Charlottenburg_South_2_12,Tra My,52.4719786,13.3350715,4.3,restaurant,"Lauterstraße 16, Berlin-Bezirk Tempelhof-Schöneberg"
ChIJUXu9aZlRqEcR0p-lOthYQ-k,Charlottenburg_South_2_12,Berlin Homemade Icecream,52.4717851,13.3349173,4.7,restaurant,"Lauterstraße 17, Berlin"
ChIJjbe3tDpRqEcR9xO_BzFw2qQ,Charlottenburg_South_2_12,MOAMOA Café & koreanische Esskultur,52.47225,13.33658,4.8,restaurant,"Hauptstraße 81 EG, rechts, Berlin"
ChIJ6_XO-aNRqEcRenP5W4yR7xM,Charlottenburg_South_2_12,Three Dudes Next Door,52.4718166,13.3359309,4.3,restaurant,"Rheinstraße 67, Berlin"
ChIJP6rsiXdRqEcRAKla2U6fcJ4,Charlottenburg_South_2_12,Mandy Restaurant,52.4718022,13.33602,4.6,restaurant,"Rheinstraße 67, Berlin"
ChIJVZ6JUwBRqEcRWjLx75Qp9q4,Charlottenburg_South_2_12,The Mood Burger,52.4717031,13.3358245,4.6,restaurant,"Rheinstraße 66, Berlin"
ChIJ_ftUnXBQqEcRCRW7aeqQltk,Charlottenburg_South_2_12,DaBangg,52.4716339,13.3360934,4.8,restaurant,"Hedwigstraße 18, Berlin"
ChIJTQiVQXpQqEcRVZSCC6X2A28,Charlottenburg_South_2_12,Das krümelzimmer,52.4713842,13.3339401,,restaurant,"Schmargendorfer Straße 34, Berlin-Bezirk Tempelhof-Schöneberg"
ChIJo_MYvlRRqEcRqj8TUuwX5Rg,Charlottenburg_South_2_12,Bonni Fine Sushi & Asian Cuisine,52.4713204,13.3341002,4.6,restaurant,"Schmargendorfer Straße 35, Berlin"
ChIJT72FnXBQqEcRThB7um2uYK4,Charlottenburg_South_2_12,La Mezcla,52.47135549999999,13.3360202,4.7,restaurant,"Hedwigstraße 1, Berlin-Bezirk Tempelhof-Schöneberg"
ChIJ2dVMCABRqEcRbcJeKZhKfpk,Charlottenburg_South_2_12,Elotl,52.47135549999999,13.3360203,,restaurant,"Hedwigstraße 1, Berlin"
ChIJQ-7z0nRRqEcREVQPRLPTUgo,Charlottenburg_South_2_12,Surin Restaurant,52.47212390000001,13.3323873,4.7,restaurant,"Handjerystraße 29, Berlin"
ChIJoTv8M8lRqEcRVIcGBhxJLnU,Charlottenburg_South_2_12,Hanoi Bistro Friedenau,52.4716574,13.337044,4.6,restaurant,"Fregestraße 5, Berlin"
ChIJmeI7zWRQqEcRhU_47jtf1y4,Charlottenburg_South_2_12,Medusa,52.47521820000001,13.3330254,4.1,restaurant,"Perelsplatz 10, Berlin-Bezirk Tempelhof-Schöneberg"
ChIJvzCYEXBQqEcRGRx0OqBNvLk,Charlottenburg_South_2_12,Malafemmena,52.47376629999999,13.3383341,4.4,restaurant,"Hauptstraße 85, Berlin"
ChIJ76RrtUxRqEcR1kJ1KodsNx4,Charlottenburg_South_2_12,REWE To Go bei Aral,52.47400520000001,13.3387604,4.6,supermarket,"Aral, Hauptstraße 86, Berlin-Bezirk Tempelhof-Schöneberg"
ChIJD8sPRmRRqEcRfIJysPyAFq4,Charlottenburg_South_2_12,Berlin Cigköfte Friedenau,52.4712948,13.3382218,4.7,cafe,"Hedwigstraße 5, Berlin"
ChIJTedUV9lRqEcR8sNDHjgP_Jg,Charlottenburg_South_2_12,Murliwale Indisches Restaurant,52.47129399999999,13.338221,4.6,cafe,"Hedwigstraße 5, Berlin"
ChIJMTMC07RZqEcRxiI3jqTjVzI,Charlottenburg_South_3_1,Kaisergarten am Grunewaldturm,52.4780998,13.1965665,4.5,restaurant,"Havelchaussee 61, Berlin"
ChIJhZQwgW1RqEcR5LTaVtbJzAo,Charlottenburg_South_3_7,Gastronomie Hagn im TC Blau-Weiss,52.47642,13.27361,4.6,restaurant,"Waldmeisterstraße 10-20, Berlin-Bezirk Charlottenburg-Wilmersdorf"
ChIJyb5ZSaRQqEcRGVtirSC_fwA,Charlottenburg_South_3_8,Habel-Weinstube Roseneck,52.47768719999999,13.2817374,4.3,restaurant,"Hohenzollerndamm 93, Berlin-Bezirk Charlottenburg-Wilmersdorf"
ChIJm5_JRKRQqEcR0SFVURkqxXc,Charlottenburg_South_3_8,Rosengarten,52.4773237,13.2823006,4.3,restaurant,"Hohenzollerndamm 110A, Berlin"
ChIJfY6x9tJRqEcRXh56uFjG9xA,Charlottenburg_South_3_8,EAT HAPPY,52.47845659999999,13.281896,,meal_takeaway,"Karlsbader Straße 17, Berlin-Bezirk Charlottenburg-Wilmersdorf"
ChIJW-FfwLVRqEcRKFOELdkDvgk,Charlottenburg_South_3_8,Würstle am Roseneck,52.477965,13.2812738,4.6,restaurant,"Teplitzer Straße 38, Berlin"
ChIJz6SJx6VQqEcRzMPCUHw1Occ,Charlottenburg_South_3_8,La Maremma,52.47722290000001,13.280019,4.5,restaurant,"Hagenstraße 79, Berlin"
ChIJiamVK_JRqEcR1R1mfiEKYUQ,Charlottenburg_South_3_8,Imbiss am Elsterplatz,52.47946229999999,13.2856337,4.5,meal_takeaway,"Elsterplatz, Berlin"
ChIJL1uUY9FRqEcRcrzNFWMiooU,Charlottenburg_South_3_8,Phở 39 Vietnamesisches Restaurant Schmargendorf,52.4773388,13.2875682,4.8,restaurant,"Berkaer Straße 39, Berlin"
ChIJ0YlRk49QqEcRaPHrR_ZwAK0,Charlottenburg_South_3_10,Heidelbeere,52.4787904,13.3103979,4.3,restaurant,"Heidelberger Platz 1, Berlin"
ChIJB9rLtppQqEcRf-wKgu8Fs7M,Charlottenburg_South_3_10,McDonald's Restaurant,52.4773362,13.3078972,3.3,restaurant,"Mecklenburgische Straße 65-68, Berlin-Bezirk Charlottenburg-Wilmersdorf"
ChIJR0Vaeo9QqEcRbUSmKilIDBQ,Charlottenburg_South_3_10,Vale Un Peccato Restaurant,52.47808939999999,13.3130825,4.4,restaurant,"Aßmannshauser Straße 26, Berlin-Bezirk Charlottenburg-Wilmersdorf"
ChIJ_RQhJl1RqEcR7thdFHWf8_M,Charlottenburg_South_3_10,Stêrk Kaffee Drinks & More,52.4793828,13.3104677,4.8,cafe,"Mecklenburgische Straße 24a, Berlin"
ChIJo_9XeohQqEcRo_XN_AT_--E,Charlottenburg_South_3_11,Straßenbahn Gaststätten und Getränkehandel GmbH,52.47722169999999,13.3205583,4.6,bar,"Laubacher Straße 29, Berlin-Bezirk Tempelhof-Schöneberg"
ChIJhYC9OH1QqEcRYbM4rLQprbY,Charlottenburg_South_3_11,Yak and Yeti Berlin,52.4752924,13.3244821,4.7,restaurant,"Südwestkorso 69A, Berlin"
ChIJJUF5WYhQqEcRKMqlKFi2f7Q,Charlottenburg_South_3_11,Il Caminetto Pizzeria Restaurant,52.47858899999999,13.32069,3.7,meal_delivery,"Detmolder Straße 50, Berlin"
ChIJPe2Pe4hQqEcRcxJ_xuS0V-Q,Charlottenburg_South_3_11,Kalyon - Imbiss,52.4772443,13.320081,4.6,restaurant,"Laubacher Straße 30, Berlin-Bezirk Charlottenburg-Wilmersdorf"
ChIJHyU_APVRqEcRLuNRoju0A7E,Charlottenburg_South_3_11,Cantamaggio,52.4769269,13.3206134,4.8,meal_delivery,"Laubacher Straße 28, Berlin"
ChIJf6vZNYhQqEcRsu50yVyaXNA,Charlottenburg_South_3_11,Yu-Gi-Oh! Trading Card Game,52.4789355,13.3224051,4.3,store,"Detmolder Straße 15, Berlin-Bezirk Charlottenburg-Wilmersdorf"
ChIJlWAuaC1RqEcRp3QAYkjCpdI,Charlottenburg_South_3_11,Bloom's Bar Berlin,52.47853509999999,13.3253831,4.7,night_club,"Detmolder Straße 61, Berlin"
ChIJdYu92mJQqEcRgx4O3zcx83w,Charlottenburg_South_3_11,Lehmbrucks,52.4767884,13.3262274,4.6,cafe,"Fehlerstraße 1, Berlin"
ChIJdYu92mJQqEcRgXju4MSKgUI,Charlottenburg_South_3_11,Mika Sushi Berlin,52.476811,13.3262463,4.8,restaurant,"Fehlerstraße 1, Berlin-Bezirk Tempelhof-Schöneberg"
ChIJpakOFGRQqEcRXFBSJ6zv3uI,Charlottenburg_South_3_12,Restaurant Bieberbau,52.4795489,13.3337296,4.5,restaurant,"Durlacher Straße 15, Berlin-Bezirk Charlottenburg-Wilmersdorf"
ChIJGV7ekkJRqEcRs6aOqUhQwig,Charlottenburg_South_3_12,EAT HAPPY,52.477045,13.333106,4.6,meal_takeaway,"Handjerystraße 98-99, Berlin"
ChIJNemULmtRqEcRMVwoLhg02Ic,Charlottenburg_South_3_12,Yakamoz Türkisches Restaurant,52.4788445,13.3330518,4.6,bar,"Prinzregentenstraße 53, Berlin"
ChIJkXTBbWRQqEcR-3CbBflMTy0,Charlottenburg_South_3_12,Sagar Indisches Restaurant,52.4790112,13.3330899,4.8,meal_takeaway,"Prinzregentenstraße 53, Berlin"
ChIJhT9fFjRRqEcRtZjYt22zge8,Charlottenburg_South_3_12,Cafe Kannva and Coffee House - Berlin,52.4788874,13.3323908,4.9,cafe,"Wexstraße 23, Berlin"
ChIJl_y0XgBRqEcRWY9V7dtdnhM,Charlottenburg_South_3_12,Rosmarin Grill,52.4771678,13.33076,5.0,restaurant,"Varziner Platz, Berlin"
ChIJD-0ll7JQqEcR1wsek06Kk10,Charlottenburg_South_4_7,Wiener Conditorei Caffeehaus,52.4837222,13.2674799,4.3,cafe,"Hagenplatz 3, Berlin-Bezirk Charlottenburg-Wilmersdorf"
ChIJd2pY9LpQqEcRO7sfvs2DlPU,Charlottenburg_South_4_8,Landhaus Grunewald,52.483582,13.2823812,4.4,restaurant,"Delbrückstraße 37, Berlin-Bezirk Charlottenburg-Wilmersdorf"
ChIJk8x3WsROqEcRjYvl-91LHLo,Charlottenburg_South_4_8,La Cascina,52.48374079999999,13.2830524,4.5,restaurant,"Delbrückstraße 28, Berlin-Bezirk Charlottenburg-Wilmersdorf"
ChIJW8WSgBtRqEcRbu7sINhhdl4,Charlottenburg_South_4_9,Sportcasino Cuno28 GmbH,52.4820579,13.2969578,4.7,restaurant,"Cunostraße 28, Berlin"
ChIJgULuapZQqEcR4CRdJBr4o2I,Charlottenburg_South_4_9,Clubhaus Tennisabteilung BSV 92,52.483469,13.2977244,4.0,restaurant,"Fritz-Wildung-Straße 23, Berlin"
ChIJf_C5YylRqEcRT_c6ldvCWWM,Charlottenburg_South_4_10,SILA Grillhaus,52.48062299999999,13.312115,4.4,restaurant,"Rudolstädter Straße 1, Berlin"
ChIJldsmXZpRqEcR6-BsKUy8jdY,Charlottenburg_South_4_10,Taormina,52.4799375,13.3061803,4.5,restaurant,"Forckenbeckstraße 9-13, Berlin-Bezirk Charlottenburg-Wilmersdorf"
ChIJTX7Lw4tQqEcRz7epCRWMUjk,Charlottenburg_South_4_11,Tulum Mexican Restaurant,52.483065,13.320704,4.3,bar,"Am Volkspark 85, Berlin-Bezirk Charlottenburg-Wilmersdorf"
ChIJj7q22ItQqEcRAKrokREJ1Yc,Charlottenburg_South_4_11,Bistro Katis,52.482154,13.3206441,4.4,restaurant,"Blissestraße 33, Berlin-Bezirk Charlottenburg-Wilmersdorf"
ChIJTUZfaolQqEcR0P7vV_38fBU,Charlottenburg_South_4_11,Blisse Treff,52.4811712,13.3205987,4.5,bar,"Blissestraße 43, Berlin-Bezirk Charlottenburg-Wilmersdorf"
ChIJ4xP-KopQqEcRjdeoLco1CiM,Charlottenburg_South_4_11,Restaurant Berliner Hof,52.4819388,13.3225588,4.6,restaurant,"Hildegardstraße 14, Berlin-Bezirk Charlottenburg-Wilmersdorf"
ChIJB-G2YolQqEcRanUs-kPK98g,Charlottenburg_South_4_11,Trattoria Acquolina,52.48204,13.32092,4.5,restaurant,"Hildegardstraße 17A, Berlin-Bezirk Charlottenburg-Wilmersdorf"
ChIJt0K3Y4lQqEcRQZjllIDPbeI,Charlottenburg_South_4_11,Blisse Imbiss,52.48192530000001,13.3206141,4.2,meal_takeaway,"Hildegardstraße 17, Berlin"
ChIJXZrfS0BRqEcR9yFpMIzFFL0,Charlottenburg_South_4_11,Chicken & Burger Home,52.4819456,13.320116,4.9,restaurant,"Blissestraße 38, Berlin"
ChIJawhF0_NRqEcRXeMexVais-s,Charlottenburg_South_4_11,La Forastera Restaurant & Coffee,52.48123219999999,13.3200367,4.5,restaurant,"Blissestraße 44, Berlin"
ChIJcQGa6otQqEcR5eLJ4hk0BWQ,Charlottenburg_South_4_11,Mimis Burger & More,52.4833958,13.3206049,4.9,restaurant,"Blissestraße 23, Berlin"
ChIJaVGI3qlRqEcR3ox9Pdw0gV4,Charlottenburg_South_4_11,Wilma Restaurant & Cafe,52.48397609999999,13.3224944,4.6,restaurant,"Straße am Schoelerpark 39, Berlin-Bezirk Charlottenburg-Wilmersdorf"
ChIJM5iIPn9RqEcR_d3QDYt4a8o,Charlottenburg_South_4_11,Vasito Eis & Aperitivo Bar,52.48037420000001,13.3257641,4.9,cafe,"Livländische Straße 26, Berlin"
ChIJNe6Y7wNRqEcR8_TKi43fiRo,Charlottenburg_South_4_11,Dalbhat,52.47971580000001,13.3249822,4.8,liquor_store,"Mainzer Straße 8, Berlin"
ChIJx0zFKmRQqEcRK0rdc1kJvVU,Charlottenburg_South_4_12,Parkcafé Pusteblume,52.4802192,13.3364243,4.0,cafe,"Durlacher Straße 2, Berlin-Bezirk Charlottenburg-Wilmersdorf"
ChIJb5gWaHlRqEcRjFWZeHfXQVA,Charlottenburg_South_4_12,Das Büdchen am Volkspark,52.480517,13.3334434,4.7,meal_takeaway,"Am Volkspark 17y, Berlin"
ChIJ4aEI8k1XqEcRkUPN0UsjlrM,Charlottenburg_South_5_6,Grand Slam Restaurant,52.48441,13.259,4.3,restaurant,"Gottfried-von-Cramm-Weg 47-55, Berlin"
ChIJVVyOSs1XqEcRb8J-ohb8zNE,Charlottenburg_South_5_6,Hertel Hähnchen,52.48739399999999,13.2612869,,restaurant,"Auerbachstraße 10, Berlin"
ChIJ0_SukblQqEcRKkJOjlMraUY,Charlottenburg_South_5_8,Trattoria Toscana Berlin im Grunewald,52.4868727,13.2845932,4.8,meal_takeaway,"Hubertusallee 48, Berlin"
ChIJ9Q5UhJVQqEcR5HuIyx_d_xo,Charlottenburg_South_5_9,Viet Long,52.486927,13.298146,4.5,restaurant,"Hohenzollerndamm 54A, Berlin"
ChIJJWvTDJVQqEcRRdlwDjY259Y,Charlottenburg_South_5_9,Trattoria Il Gusto,52.4877716,13.2993978,4.4,restaurant,"Hohenzollerndamm 50, Berlin-Bezirk Charlottenburg-Wilmersdorf"
ChIJK6A1uvRQqEcRrA0sNyIEKyE,Charlottenburg_South_5_11,Domino's,52.4886243,13.322352,2.8,restaurant,"Uhlandstraße 87, Berlin"
ChIJs7qRQ4tQqEcR7Dly7TBLxq0,Charlottenburg_South_5_11,Veloce Pizza e Pasta,52.4862811,13.3212883,4.1,restaurant,"Berliner Straße 132, Berlin-Bezirk Charlottenburg-Wilmersdorf"
ChIJTYMmsvRQqEcRboeUP58hMEc,Charlottenburg_South_5_11,Alimentari Altavilla,52.4877604,13.3220853,4.8,restaurant,"Gasteiner Straße 9, Berlin-Bezirk Charlottenburg-Wilmersdorf"
ChIJrzGrNotQqEcRMewST76Elfc,Charlottenburg_South_5_11,Sushi Miyabi,52.4867308,13.3243254,4.5,restaurant,"Berliner Straße 29, Berlin"
ChIJiy3Gl4xQqEcRJjF9MXq1WE8,Charlottenburg_South_5_11,"Ristorante ""Ischia""",52.4863811,13.3190588,4.4,restaurant,"Berliner Straße 124, Berlin-Bezirk Charlottenburg-Wilmersdorf"
ChIJQxs7QQBRqEcRo_uzdDKaFDY,Charlottenburg_South_5_11,"Max & Moritz Food ""Wilmersdorf""",52.4862833,13.3215696,4.6,restaurant,"Berliner Straße 132, Berlin"
ChIJ3clmCwBRqEcRqJvaBk6Uj_s,Charlottenburg_South_5_11,Coi - Sushi & Bowl,52.4862791,13.3214096,4.8,meal_takeaway,"Berliner Straße 132, Berlin"
ChIJbTmFWoVRqEcR-9V5Ru91enQ,Charlottenburg_South_5_11,Eiscaffe Mauritius,52.4861489,13.3228215,3.8,restaurant,"U Blissestr./Uhlandstr. (Berlin, Berliner Straße 136, Berlin-Bezirk Charlottenburg-Wilmersdorf"
ChIJJ491LkxRqEcRbfyLyrTWUv0,Charlottenburg_South_5_11,TCA,52.48653050000001,13.3216004,,bar,"Berliner Straße, Berlin"
ChIJD2YDmmlRqEcRKqR62d_JGK4,Charlottenburg_South_5_11,ysddsds,52.48653050000001,13.3216004,,restaurant,"Berliner Straße, Berlin"
ChIJVVUFRYtQqEcRgk4b8iN6Qq4,Charlottenburg_South_5_11,Bäcker Wiedemann – Bäckerei Charlottenburg-Wilmersdorf,52.4866671,13.321483,3.6,bakery,"Berliner Straße 37, Berlin-Bezirk Charlottenburg-Wilmersdorf"
